city,latitude,longitude,date,nkill,nwound,gname
Beirut,33.888523,35.503513,1981-12-15,66.0,100.0,Iraqi Liberation Army
Tyre district,33.287166,35.236186,1982-11-11,90.0,,Palestine Liberation Organization (PLO)
Beirut,33.888523,35.503513,1983-04-18,63.0,120.0,Hezbollah
Beirut,33.888523,35.503513,1983-10-23,241.0,75.0,Hezbollah
Beirut,33.888523,35.503513,1983-10-23,58.0,0.0,Hezbollah
Tyre,33.266151,35.214058,1983-11-04,,,Hezbollah
Unknown,,,1983-12-12,,,Hezbollah
Sidon,33.550434,35.370964,1984-06-16,1.0,5.0,Unknown
Beirut,33.888523,35.503513,1984-09-20,23.0,68.0,Hezbollah
Tyre,33.266151,35.214058,1985-02-05,12.0,60.0,Unknown
Metula,33.277232,35.578235,1985-03-10,12.0,14.0,Lebanese National Resistance Front
Jezzine,33.541351,35.586215,1985-04-09,2.0,,Syrian Social Nationalist Party
Hasbaya,33.397778,35.685,1985-05-09,3.0,0.0,Unknown
Beirut,33.888523,35.503513,1985-06-14,23.0,42.0,Khalid ibn Walid
Hasbaya,33.397778,35.685,1985-07-09,15.0,6.0,Syrian Social Nationalist Party
Ras al-Bayada,,,1985-07-09,0.0,2.0,Syrian Social Nationalist Party
Kafr Tibnit,33.353333,35.512778,1985-07-15,14.0,7.0,Lebanese National Resistance Front
Arnoun,33.331503,35.52586,1985-07-31,,0.0,Syrian Social Nationalist Party
Rimat,33.528333,35.509444,1985-08-28,1.0,4.0,Unknown
Jezzine,33.541351,35.586215,1985-09-04,1.0,0.0,Arab Socialist Baath Party
Hasbaya,33.397778,35.685,1985-09-11,0.0,2.0,Unknown
Beirut,33.888523,35.503513,1985-09-17,30.0,0.0,Unknown
Beirut,33.888523,35.503513,1985-10-17,5.0,0.0,Lebanese National Resistance Front
Aukar,34.432778,35.916389,1985-11-12,4.0,26.0,Unknown
Jezzine,33.541351,35.586215,1985-11-27,,,Arab Socialist Baath Party
Hasbaya,33.397778,35.685,1986-04-08,2.0,0.0,Unknown
Jezzine,33.541351,35.586215,1986-07-17,1.0,7.0,Syrian Social Nationalist Party
Unknown,33.474535,35.359255,1986-11-21,3.0,3.0,Palestine Liberation Organization (PLO)
Nelliady,9.804272,80.1654,1987-07-05,27.0,20.0,Liberation Tigers of Tamil Eelam (LTTE)
Beirut,33.888523,35.503513,1987-11-11,5.0,70.0,Unknown
Beirut,33.888523,35.503513,1987-11-14,7.0,31.0,Unknown
Marjayoun,33.246259,35.5001,1988-08-19,0.0,0.0,Unknown
Kfar Kila,33.277222,35.551667,1988-10-19,7.0,10.0,Hezbollah
Nelspruit,-25.474193,30.969455,1989-05-23,1.0,2.0,African National Congress (South Africa)
Rosh Hanikra,33.085678,35.113181,1989-10-30,1.0,1.0,Palestinians
Montreal,45.501675,-73.567215,1989-12-06,15.0,14.0,Anti-feminist extremists
Mankulam,9.136988,80.445169,1990-11-23,2.0,0.0,Liberation Tigers of Tamil Eelam (LTTE)
Chebaa,33.347492,35.749159,1990-11-25,6.0,2.0,Syrian Social Nationalist Party
Point Pedro,9.82486,80.236347,1991-05-05,11.0,5.0,Liberation Tigers of Tamil Eelam (LTTE)
Sriperumpudur,12.933123,79.9196,1991-05-21,15.0,0.0,Liberation Tigers of Tamil Eelam (LTTE)
Colombo,6.941837,79.861687,1991-06-21,60.0,50.0,Liberation Tigers of Tamil Eelam (LTTE)
Buenos Aires,-34.61768,-58.444435,1992-03-17,30.0,220.0,Hezbollah
Colombo,6.941837,79.861687,1992-11-16,4.0,0.0,Liberation Tigers of Tamil Eelam (LTTE)
Afula,32.608879,35.289967,1994-04-06,8.0,50.0,Hamas (Islamic Resistance Movement)
Hadera,32.434788,34.92157,1994-04-13,5.0,20.0,Palestinians
Buenos Aires,-34.61768,-58.444435,1994-07-18,85.0,236.0,Hezbollah
Colon,9.358577,-79.900015,1994-07-19,21.0,0.0,Ansar Allah
Kalptiya district,8.229528,79.759614,1994-09-19,30.0,0.0,Liberation Tigers of Tamil Eelam (LTTE)
Tel Aviv,32.08297,34.811886,1994-10-19,23.0,42.0,Hamas (Islamic Resistance Movement)
Colombo,6.941837,79.861687,1994-10-24,54.0,300.0,Liberation Tigers of Tamil Eelam (LTTE)
Vettilaikerni,9.575,80.466111,1994-11-08,5.0,0.0,Liberation Tigers of Tamil Eelam (LTTE)
Netzarim,31.502407,34.459743,1994-11-11,3.0,10.0,Palestinian Islamic Jihad (PIJ)
Hebron,31.530243,35.094162,1994-12-22,1.0,0.0,Unknown
Jerusalem,31.771599,35.2034,1994-12-25,1.0,13.0,Hamas (Islamic Resistance Movement)
Algiers,36.763763,3.055413,1995-01-30,43.0,286.0,Armed Islamic Group (GIA)
Kfar Darom,31.401401,34.360064,1995-04-09,8.0,40.0,Palestinian Islamic Jihad (PIJ)
Netzarim,31.502407,34.459743,1995-04-09,1.0,3.0,Hamas (Islamic Resistance Movement)
Jaffna district,9.66123,80.02558,1995-04-19,12.0,0.0,Liberation Tigers of Tamil Eelam (LTTE)
Kankesanturai,9.815254,80.037053,1995-07-06,3.0,17.0,Liberation Tigers of Tamil Eelam (LTTE)
Tel Aviv,32.08297,34.811886,1995-07-24,7.0,32.0,Hamas (Islamic Resistance Movement)
Boufarik,36.591944,2.92,1995-08-06,11.0,25.0,Unknown
Colombo,6.941837,79.861687,1995-08-07,24.0,40.0,Liberation Tigers of Tamil Eelam (LTTE)
Jerusalem,31.771599,35.2034,1995-08-21,6.0,100.0,Hamas (Islamic Resistance Movement)
Unknown,8.885503,80.276733,1995-10-02,15.0,34.0,Liberation Tigers of Tamil Eelam (LTTE)
Trincomalee,8.577826,81.218719,1995-10-17,1.0,0.0,Liberation Tigers of Tamil Eelam (LTTE)
Trincomalee,8.577826,81.218719,1995-10-17,9.0,6.0,Liberation Tigers of Tamil Eelam (LTTE)
Colombo,6.941837,79.861687,1995-10-20,0.0,0.0,Liberation Tigers of Tamil Eelam (LTTE)
Rijeka,45.343056,14.409167,1995-10-20,1.0,2.0,Al-Gama'at al-Islamiyya (IG)
Unknown,31.356553,34.326901,1995-11-02,2.0,8.0,Palestinian Islamic Jihad (PIJ)
Islamabad,33.671638,73.056068,1995-11-19,16.0,60.0,Egyptian Islamic Jihad (Al-Jihad)
Colombo,6.941837,79.861687,1995-11-24,18.0,50.0,Liberation Tigers of Tamil Eelam (LTTE)
Batticaloa district,7.716668,81.70019,1995-12-05,57.0,0.0,Liberation Tigers of Tamil Eelam (LTTE)
New York City,40.697132,-73.931351,1995-12-08,8.0,4.0,Black Nationalists
Colombo,6.941837,79.861687,1995-11-11,19.0,59.0,Liberation Tigers of Tamil Eelam (LTTE)
Peshawar,34.006004,71.53743,1995-12-21,42.0,100.0,Afghans
Batticaloa district,7.716666,81.700188,1995-12-30,1.0,2.0,Liberation Tigers of Tamil Eelam (LTTE)
Colombo,6.941837,79.861687,1996-01-31,90.0,1272.0,Liberation Tigers of Tamil Eelam (LTTE)
Majdal Selm,33.214611,35.461758,1996-02-20,1.0,0.0,Hezbollah
Jerusalem,31.771599,35.2034,1996-02-25,26.0,50.0,Hamas (Islamic Resistance Movement)
Ashkelon,31.670149,34.575153,1996-02-25,2.0,34.0,Hamas (Islamic Resistance Movement)
Jerusalem,31.771599,35.2034,1996-03-03,20.0,9.0,Hamas (Islamic Resistance Movement)
Tel Aviv,32.08297,34.811886,1996-03-04,13.0,105.0,Hamas (Islamic Resistance Movement)
Metula,33.277232,35.578235,1996-03-21,2.0,1.0,Hezbollah
Vettilaikerni,9.575,80.466111,1996-03-30,12.0,0.0,Liberation Tigers of Tamil Eelam (LTTE)
Tunceli,39.106709,39.545246,1996-06-30,10.0,30.0,Unknown
Jaffna,9.666399,80.020477,1996-07-04,37.0,50.0,Liberation Tigers of Tamil Eelam (LTTE)
Adana,36.99154,35.331051,1996-10-25,4.0,0.0,Kurdistan Workers' Party (PKK)
Trincomalee,8.577826,81.218719,1996-10-26,12.0,0.0,Liberation Tigers of Tamil Eelam (LTTE)
Sivas,39.74887,37.016499,1996-10-29,5.0,0.0,Kurdistan Workers' Party (PKK)
Trincomalee district,8.5922,81.196796,1996-11-25,1.0,1.0,Liberation Tigers of Tamil Eelam (LTTE)
Karativu,7.377078,81.841562,1996-12-17,2.0,1.0,Liberation Tigers of Tamil Eelam (LTTE)
Urumqi,43.825645,87.616823,1997-03-01,1.0,0.0,Unknown
Mullaitivu district,9.267091,80.814248,1997-03-24,81.0,58.0,Liberation Tigers of Tamil Eelam (LTTE)
Unknown,31.356553,34.326901,1997-04-01,1.0,0.0,Unknown
Unknown,31.356553,34.326901,1997-04-01,1.0,5.0,Unknown
Naqoura,33.11829,35.139866,1997-05-19,1.0,0.0,Unknown
Jerusalem,31.771599,35.2034,1997-07-30,15.0,170.0,Hamas (Islamic Resistance Movement)
Jerusalem,31.771599,35.2034,1997-09-04,7.0,192.0,Unknown
Colombo,6.941837,79.861687,1997-10-15,18.0,105.0,Liberation Tigers of Tamil Eelam (LTTE)
Colombo,6.941837,79.861687,1997-10-15,18.0,105.0,Liberation Tigers of Tamil Eelam (LTTE)
Unknown,8.885503,80.276733,1997-10-19,109.0,,Liberation Tigers of Tamil Eelam (LTTE)
Galle,6.031537,80.233525,1997-12-28,3.0,0.0,Liberation Tigers of Tamil Eelam (LTTE)
Kandy,7.29384,80.640669,1998-01-25,13.0,15.0,Liberation Tigers of Tamil Eelam (LTTE)
Kandy,7.29384,80.640669,1998-01-26,26.0,,Liberation Tigers of Tamil Eelam (LTTE)
Colombo,6.941837,79.861687,1998-02-06,9.0,15.0,Liberation Tigers of Tamil Eelam (LTTE)
Point Pedro,9.82486,80.236347,1998-02-23,54.0,,Liberation Tigers of Tamil Eelam (LTTE)
Virar,19.45067,72.812571,1998-02-27,2.0,2.0,Unknown
Colombo,6.941837,79.861687,1998-03-05,37.0,260.0,Liberation Tigers of Tamil Eelam (LTTE)
Trincomalee,8.577826,81.218719,1998-03-11,4.0,5.0,Liberation Tigers of Tamil Eelam (LTTE)
Ramallah,31.907141,35.198219,1998-03-30,2.0,0.0,Hamas (Islamic Resistance Movement)
Kfar Houneh,33.4925,35.587222,1998-05-08,2.0,0.0,Hezbollah
Point Pedro,9.82486,80.236347,1998-05-14,4.0,0.0,Liberation Tigers of Tamil Eelam (LTTE)
Lahore,31.50547,74.34288,1998-06-05,3.0,10.0,Unknown
Nairobi,-1.28518,36.821107,1998-08-07,224.0,4000.0,Al-Qaida
Dar es Salaam,-6.813546,39.239418,1998-08-07,11.0,85.0,Al-Qaida
Jaffna,9.666399,80.020477,1998-09-11,21.0,,Liberation Tigers of Tamil Eelam (LTTE)
Kfar Darom,31.401486,34.360052,1998-10-29,2.0,0.0,Hamas (Islamic Resistance Movement)
Mullaitivu,9.267091,80.814248,1998-10-30,10.0,8.0,Liberation Tigers of Tamil Eelam (LTTE)
Jerusalem,31.771599,35.2034,1998-11-06,2.0,21.0,Hamas (Islamic Resistance Movement)
Yuksekova district,37.562515,44.293677,1998-11-17,1.0,5.0,Kurdistan Workers' Party (PKK)
Diyarbakir,37.922218,40.184376,1998-12-01,1.0,8.0,Unknown
New Delhi,28.585836,77.153336,1998-12-18,7.0,47.0,Unknown
Van,38.504136,43.375265,1998-12-24,2.0,22.0,Unknown
Batman,37.885793,41.130124,1999-03-04,1.0,3.0,Kurdistan Workers' Party (PKK)
Duhok,36.860813,42.97646,1999-03-10,1.0,4.0,Unknown
Dahuk,,,1999-03-11,3.0,6.0,Kurdistan Workers' Party (PKK)
Mount Lavinia,6.830119,79.880083,1999-03-15,5.0,10.0,Liberation Tigers of Tamil Eelam (LTTE)
Hatay,36.204751,36.165597,1999-03-16,2.0,0.0,Unknown
Diyarbakir,37.922218,40.184376,1999-03-20,1.0,3.0,Kurdistan Workers' Party (PKK)
Unknown,37.522777,42.455079,1999-03-20,0.0,0.0,Kurdistan Workers' Party (PKK)
Istanbul,41.106178,28.689863,1999-03-26,1.0,10.0,Kurdistan Workers' Party (PKK)
Marcik,39.31408,39.439009,1999-04-03,1.0,0.0,Unknown
Bingol,38.888447,40.501144,1999-04-05,2.0,20.0,Kurdistan Workers' Party (PKK)
Hakkari,37.577039,43.736096,1999-04-08,2.0,5.0,Unknown
Littleton,39.616905,-105.014519,1999-04-20,15.0,24.0,Unknown
Batticaloa,7.733107,81.68882,1999-05-30,3.0,9.0,Liberation Tigers of Tamil Eelam (LTTE)
Adana,36.99154,35.331051,1999-07-05,1.0,17.0,Kurdistan Workers' Party (PKK)
Trincomalee,8.577826,81.218719,1999-07-25,2.0,0.0,Liberation Tigers of Tamil Eelam (LTTE)
Colombo,6.941837,79.861687,1999-07-29,2.0,2.0,Liberation Tigers of Tamil Eelam (LTTE)
Veppankulam,8.792316,80.466026,1999-08-04,15.0,30.0,Liberation Tigers of Tamil Eelam (LTTE)
Batticaloa,7.733107,81.68882,1999-08-09,2.0,,Liberation Tigers of Tamil Eelam (LTTE)
Pulmoddai,8.941674,80.986695,1999-08-16,,,Liberation Tigers of Tamil Eelam (LTTE)
Colombo,6.941837,79.861687,1999-08-20,2.0,0.0,Liberation Tigers of Tamil Eelam (LTTE)
Tunceli,39.106709,39.545246,1999-08-27,1.0,0.0,Turkish Communist Party/Marxist (TKP-ML)
Vavuniya,8.757816,80.487907,1999-09-01,3.0,0.0,Liberation Tigers of Tamil Eelam (LTTE)
Haifa,32.793921,34.990615,1999-09-05,1.0,0.0,Israeli extremists
Tiberias,32.788284,35.521675,1999-09-05,2.0,4.0,Israeli extremists
Srinagar,34.08374,74.789902,1999-11-03,8.0,2.0,Lashkar-e-Taiba (LeT)
Colombo,6.941837,79.861687,1999-12-18,15.0,110.0,Liberation Tigers of Tamil Eelam (LTTE)
Ja-Ela,7.079678,79.890976,1999-12-18,8.0,40.0,Liberation Tigers of Tamil Eelam (LTTE)
Qulaylah,33.317742,35.280762,1999-12-30,1.0,12.0,Hezbollah
Aden,12.825647,44.846416,2000-01-03,0.0,0.0,Al-Qaida
Colombo,6.941837,79.861687,2000-01-05,11.0,25.0,Liberation Tigers of Tamil Eelam (LTTE)
Beijing,39.905556,116.395833,2000-02-15,1.0,,Unknown
Sopore,34.288891,74.463715,2000-04-19,1.0,7.0,Jaish-e-Mohammad (JeM)
General Santos,6.11622,125.169395,2000-05-03,5.0,10.0,Moro Islamic Liberation Front (MILF)
Jaffna,9.666399,80.020477,2000-05-10,,149.0,Liberation Tigers of Tamil Eelam (LTTE)
Kantale,8.351263,81.006993,2000-05-23,2.0,6.0,Liberation Tigers of Tamil Eelam (LTTE)
Vadamarachchi,9.7,80.316667,2000-06-05,34.0,0.0,Liberation Tigers of Tamil Eelam (LTTE)
Colombo,6.941837,79.861687,2000-06-07,24.0,,Liberation Tigers of Tamil Eelam (LTTE)
Alkhan-Yurt,43.03908,45.487556,2000-06-07,3.0,5.0,Chechen Rebels
Grozny,43.320229,45.654491,2000-06-11,5.0,1.0,Chechen Rebels
Grozny,43.320229,45.654491,2000-06-12,7.0,0.0,Chechen Rebels
Wattala,6.978143,79.889327,2000-06-14,3.0,12.0,Liberation Tigers of Tamil Eelam (LTTE)
Mullaitivu,9.267091,80.814248,2000-06-19,0.0,,Liberation Tigers of Tamil Eelam (LTTE)
Jaffna,9.666399,80.020477,2000-06-26,16.0,,Liberation Tigers of Tamil Eelam (LTTE)
Argun,43.3,45.866667,2000-07-02,50.0,81.0,Chechen Rebels
Gudermes,43.35,46.1,2000-07-02,6.0,0.0,Chechen Rebels
Gudermes,43.35,46.1,2000-07-02,9.0,0.0,Chechen Rebels
Urus-Martan,43.127544,45.539974,2000-07-02,2.0,0.0,Chechen Rebels
Oyskhara,43.2572,46.243,2000-07-02,4.0,20.0,Chechen Rebels
Vavuniya,8.757816,80.487907,2000-08-16,2.0,6.0,Liberation Tigers of Tamil Eelam (LTTE)
Colombo,6.941837,79.861687,2000-09-15,7.0,24.0,Liberation Tigers of Tamil Eelam (LTTE)
Colombo,6.941837,79.861687,2000-09-16,3.0,12.0,Liberation Tigers of Tamil Eelam (LTTE)
Zamboanga City,6.929089,122.07885,2000-09-20,1.0,9.0,Abu Sayyaf Group (ASG)
Jaffna district,9.66123,80.02558,2000-10-02,23.0,50.0,Unknown
Medawachchiya,8.53839,80.49328,2000-10-05,12.0,45.0,Liberation Tigers of Tamil Eelam (LTTE)
Aden,12.825647,44.846416,2000-10-12,19.0,38.0,Al-Qaida
Colombo,6.941837,79.861687,2000-10-19,4.0,21.0,Liberation Tigers of Tamil Eelam (LTTE)
Trincomalee,8.577826,81.218719,2000-10-23,24.0,43.0,Liberation Tigers of Tamil Eelam (LTTE)
Khan Yunis,31.346964,34.30143,2000-10-26,1.0,1.0,Palestinian Islamic Jihad (PIJ)
Trincomalee,8.577826,81.218719,2000-11-04,,0.0,Liberation Tigers of Tamil Eelam (LTTE)
Gaza,31.502407,34.459743,2000-11-06,0.0,0.0,Unknown
Istanbul,41.106178,28.689863,2000-11-22,1.0,1.0,Unknown
Manila,14.599352,120.984772,2000-11-23,0.0,0.0,Left-wing extremists
Gudermes,43.35,46.1,2000-12-08,3.0,12.0,Chechen Rebels
Grozny,43.320229,45.654491,2000-12-19,0.0,0.0,Chechen Rebels
Mehola,32.365329,35.516113,2000-12-22,1.0,3.0,Hamas (Islamic Resistance Movement)
Istanbul,41.106178,28.689863,2001-01-03,3.0,7.0,Devrimici Halk Kurtulus Cephesi (DHKP/C)
Netanya,32.325073,34.854663,2001-01-08,1.0,24.0,Hamas (Islamic Resistance Movement)
Srinagar,34.002039,74.762446,2001-01-16,11.0,14.0,Lashkar-e-Taiba (LeT)
Umm al-Fahm,32.52021,35.151958,2001-03-02,2.0,9.0,Hamas (Islamic Resistance Movement)
Netanya,32.325073,34.854663,2001-03-04,4.0,,Palestinian Extremists
Jerusalem,31.784838,35.224613,2001-03-27,1.0,28.0,Hamas (Islamic Resistance Movement)
Qalqilya,32.189444,34.970556,2001-03-28,3.0,4.0,Hamas (Islamic Resistance Movement)
Kefar Sava,32.178344,34.907985,2001-04-22,2.0,50.0,Hamas (Islamic Resistance Movement)
Magam,34.092796,74.589592,2001-05-09,8.0,,Lashkar-e-Taiba (LeT)
Netanya,32.325073,34.854663,2001-05-18,4.0,31.0,Hamas (Islamic Resistance Movement)
Hadera,32.434788,34.92157,2001-05-25,2.0,60.0,Palestinian Islamic Jihad (PIJ)
Gaza,31.502407,34.459743,2001-05-29,2.0,0.0,Unknown
Tel Aviv,32.08297,34.811886,2001-06-01,22.0,100.0,Hamas (Islamic Resistance Movement)
Narayanganj,23.618999,90.498032,2001-06-16,21.0,100.0,Unknown
Dugit,31.573713,34.489043,2001-06-22,3.0,1.0,Hamas (Islamic Resistance Movement)
Kissufim,31.376445,34.369413,2001-07-09,0.0,0.0,Hamas (Islamic Resistance Movement)
Binyamina,32.519469,34.949398,2001-07-16,3.0,8.0,Palestinian Islamic Jihad (PIJ)
Katunayake,7.180155,79.884252,2001-07-24,21.0,12.0,Liberation Tigers of Tamil Eelam (LTTE)
Tel Teomim,32.442482,35.496686,2001-08-02,0.0,0.0,Palestinian Extremists
Jerusalem,31.771599,35.2034,2001-08-09,16.0,130.0,Hamas (Islamic Resistance Movement)
Kiryat Motzkin,32.839067,35.080498,2001-08-12,1.0,15.0,Palestinian Islamic Jihad (PIJ)
Ambon,-3.648426,128.16576,2001-08-15,3.0,6.0,Unknown
Haifa,32.793921,34.990615,2001-08-17,0.0,0.0,Palestinian Islamic Jihad (PIJ)
Jerusalem,31.784838,35.224613,2001-09-04,1.0,0.0,Unknown
Nahariyya,33.004219,35.092571,2001-09-09,3.0,20.0,Unknown
Nahariyya,33.004219,35.092571,2001-09-09,5.0,30.0,Hamas (Islamic Resistance Movement)
Khodja Baha ud din,37.340225,69.536949,2001-09-10,3.0,1.0,Taliban
Istanbul,41.106178,28.689863,2001-09-10,3.0,16.0,Devrimici Halk Kurtulus Cephesi (DHKP/C)
New York City,40.697132,-73.931351,2001-09-11,1384.0,8190.0,Al-Qaida
New York City,40.697132,-73.931351,2001-09-11,1383.0,8191.0,Al-Qaida
Arlington,38.878742,-77.100006,2001-09-11,190.0,106.0,Al-Qaida
Shanksville,40.018464,-78.907197,2001-09-11,44.0,6.0,Al-Qaida
Haifa,32.793921,34.990615,2001-12-09,1.0,28.0,Palestinian Extremists
Trincomalee,8.577826,81.218719,2001-09-16,31.0,65.0,Liberation Tigers of Tamil Eelam (LTTE)
Argun,43.3,45.866667,2001-09-17,1.0,0.0,Unknown
Handwara,34.399281,74.281273,2001-09-17,12.0,9.0,Lashkar-e-Taiba (LeT)
Srinagar,34.08374,74.789902,2001-10-01,31.0,60.0,Jaish-e-Mohammad (JeM)
Beit Shean,32.496086,35.498352,2001-10-07,2.0,0.0,Palestinian Islamic Jihad (PIJ)
Be'eri,31.348022,34.491093,2001-10-17,1.0,2.0,Popular Front for the Liberation of Palestine (PFLP)
Colombo,6.897593,79.881483,2001-10-29,6.0,16.0,Liberation Tigers of Tamil Eelam (LTTE)
Point Pedro,9.82486,80.236347,2001-10-30,10.0,,Liberation Tigers of Tamil Eelam (LTTE)
Unknown,,,2001-11-09,1.0,3.0,Liberation Tigers of Tamil Eelam (LTTE)
Batticaloa,7.733107,81.68882,2001-11-15,4.0,9.0,Liberation Tigers of Tamil Eelam (LTTE)
Bandipora,34.419539,74.63827,2001-11-24,2.0,0.0,Lashkar-e-Taiba (LeT)
Erez,31.558212,34.543305,2001-11-26,1.0,2.0,Hamas (Islamic Resistance Movement)
Pardes Hanna,32.473605,34.975094,2001-11-29,3.0,8.0,Palestinian Islamic Jihad (PIJ)
Urus-Martan,43.127544,45.539974,2001-11-29,4.0,1.0,Chechen Rebels
Hadera,32.434788,34.92157,2001-11-29,4.0,8.0,Palestinian Islamic Jihad (PIJ)
Jerusalem,31.771599,35.2034,2001-12-01,10.0,171.0,Hamas (Islamic Resistance Movement)
Haifa,32.793921,34.990615,2001-12-02,16.0,38.0,Hamas (Islamic Resistance Movement)
Gush Qatif,31.355579,34.274364,2001-12-12,2.0,4.0,Hamas (Islamic Resistance Movement)
New Delhi,28.585836,77.153336,2001-12-13,14.0,,Jaish-e-Mohammad (JeM)
Paris,48.856644,2.34233,2001-12-22,0.0,1.0,Al-Qaida
Zhongxiang,31.16782,112.588121,2001-12-28,2.0,1.0,Unknown
Tampa,27.947354,-82.45875,2002-01-05,1.0,0.0,Jihadi-inspired extremists
Kupwara,34.526179,74.254614,2002-01-09,3.0,2.0,Unknown
Tel Aviv,32.08297,34.811886,2002-01-25,1.0,25.0,Hamas (Islamic Resistance Movement)
Jerusalem,31.771599,35.2034,2002-01-27,2.0,,Unknown
Tayibe,32.266734,35.010478,2002-01-30,1.0,2.0,Al-Aqsa Martyrs Brigade
Karnei Shomron,32.171631,35.097438,2002-02-16,3.0,20.0,Popular Front for the Liberation of Palestine (PFLP)
Hadera,32.434788,34.92157,2002-02-17,2.0,4.0,Al-Aqsa Martyrs Brigade
Jerusalem district,31.783343,35.266543,2002-02-18,2.0,1.0,Al-Aqsa Martyrs Brigade
Gush Qatif,31.355579,34.274364,2002-02-18,4.0,3.0,Al-Aqsa Martyrs Brigade
Mehola,32.365302,35.516025,2002-02-19,1.0,0.0,Al-Aqsa Martyrs Brigade
Efrat,31.653707,35.149941,2002-02-22,1.0,1.0,Unknown
Efrat,31.653707,35.149941,2002-02-23,1.0,1.0,Al-Aqsa Martyrs Brigade
Maccabim,31.892497,35.034202,2002-02-28,3.0,3.0,Unknown
Jerusalem,31.771599,35.2034,2002-03-02,11.0,60.0,Al-Aqsa Martyrs Brigade
Afula,32.608879,35.289967,2002-03-05,2.0,5.0,Palestinian Islamic Jihad (PIJ)
Ariel,32.100242,35.166667,2002-03-07,2.0,14.0,Al-Aqsa Martyrs Brigade
Jerusalem,31.771599,35.2034,2002-03-09,12.0,50.0,Al-Aqsa Martyrs Brigade
Jerusalem,31.771599,35.2034,2002-03-17,1.0,7.0,Palestinian Islamic Jihad (PIJ)
Umm al-Fahm,32.52021,35.151958,2002-03-20,8.0,29.0,Palestinian Islamic Jihad (PIJ)
Jerusalem,31.771599,35.2034,2002-03-21,4.0,60.0,Al-Aqsa Martyrs Brigade
Jenin,32.460617,35.301247,2002-03-22,1.0,1.0,Al-Aqsa Martyrs Brigade
Jerusalem,31.771599,35.2034,2002-03-26,2.0,0.0,Al-Aqsa Martyrs Brigade
Netanya,32.332612,34.851529,2002-03-27,31.0,140.0,Hamas (Islamic Resistance Movement)
Jerusalem,31.771599,35.2034,2002-03-29,3.0,20.0,Al-Aqsa Martyrs Brigade
Jammu,32.726602,74.857026,2002-03-30,10.0,20.0,Islamic Front
Tel Aviv,32.08297,34.811886,2002-03-30,1.0,32.0,Al-Aqsa Martyrs Brigade
Haifa,32.793921,34.990615,2002-03-31,15.0,35.0,Hamas (Islamic Resistance Movement)
Efrat,31.653707,35.149941,2002-03-31,1.0,4.0,Al-Aqsa Martyrs Brigade
Jerusalem,31.771599,35.2034,2002-04-01,2.0,0.0,Al-Aqsa Martyrs Brigade
Haifa,32.793921,34.990615,2002-04-11,10.0,,Palestinian Extremists
Er Riadh,33.819136,10.855024,2002-04-11,21.0,30.0,Al-Qaida
Jerusalem,31.771599,35.2034,2002-04-12,7.0,50.0,Al-Aqsa Martyrs Brigade
Qatif,31.366959,34.316491,2002-04-19,1.0,2.0,Palestinian Islamic Jihad (PIJ)
Netzarim,31.502407,34.459743,2002-04-22,3.0,0.0,Unknown
Rishon le Zion,31.970541,34.791725,2002-05-07,15.0,58.0,Hamas (Islamic Resistance Movement)
Karachi,24.891115,67.143311,2002-05-08,14.0,20.0,Al-Qaida
Jammu,32.65905,74.881414,2002-05-14,34.0,45.0,Lashkar-e-Taiba (LeT)
Netanya,32.325073,34.854663,2002-05-19,20.0,20.0,Hamas (Islamic Resistance Movement)
Netanya,32.325073,34.854663,2002-05-20,4.0,50.0,Hamas (Islamic Resistance Movement)
Ti'anik,32.520252,35.220344,2002-05-20,1.0,0.0,Hamas (Islamic Resistance Movement)
Rishon le Zion,31.970541,34.791725,2002-05-22,4.0,40.0,Al-Aqsa Martyrs Brigade
Tel Aviv,32.08297,34.811886,2002-05-24,1.0,2.0,Al-Aqsa Martyrs Brigade
Jenin,32.460617,35.301247,2002-05-25,0.0,0.0,Unknown
Petah Tiqwa,32.089161,34.88382,2002-05-27,3.0,50.0,Al-Aqsa Martyrs Brigade
Grozny,43.320229,45.654491,2002-05-31,5.0,,Chechen Rebels
Megiddo,32.581387,35.182465,2002-06-05,17.0,40.0,Palestinian Islamic Jihad (PIJ)
Herzliya Pituah,32.08297,34.811886,2002-06-11,2.0,15.0,Unknown
Karachi,24.891115,67.143311,2002-06-14,12.0,51.0,Lashkar-e-Omar
Jerusalem,31.771599,35.2034,2002-06-17,19.0,48.0,Hamas (Islamic Resistance Movement)
Ayash Salem,32.543715,35.201409,2002-06-17,1.0,0.0,Unknown
Jerusalem,31.784838,35.224613,2002-06-19,7.0,37.0,Hamas (Islamic Resistance Movement)
Tel Aviv,32.08297,34.811886,2002-07-17,5.0,40.0,Palestinian Islamic Jihad (PIJ)
Jerusalem,31.771599,35.2034,2002-07-30,1.0,5.0,Al-Aqsa Martyrs Brigade
Rafah,31.278791,34.256435,2002-08-01,1.0,1.0,Hamas (Islamic Resistance Movement)
Jerusalem,31.771599,35.2034,2002-08-01,8.0,80.0,Hamas (Islamic Resistance Movement)
Bagram Air Field,34.944168,69.273331,2002-08-02,1.0,5.0,Unknown
Jerusalem,31.771599,35.2034,2002-08-04,4.0,0.0,Hamas (Islamic Resistance Movement)
Hadera,32.434788,34.92157,2002-08-05,1.0,1.0,Unknown
Har Bracha,32.193339,35.264836,2002-08-31,1.0,2.0,Popular Front for the Liberation of Palestine (PFLP)
Umm al-Fahm,32.52021,35.151958,2002-09-18,2.0,3.0,Palestinian Islamic Jihad (PIJ)
Tel Aviv,32.08297,34.811886,2002-09-19,6.0,50.0,Hamas (Islamic Resistance Movement)
Guilin,25.273566,110.290195,2002-10-02,1.0,18.0,Unknown
Gulf of Aden,12.533136,47.922339,2002-10-06,1.0,12.0,Al-Qaida
Tel Aviv,32.08297,34.811886,2002-10-10,2.0,12.0,Unknown
Tel Aviv,32.08297,34.811886,2002-10-11,0.0,0.0,Unknown
Kuta,-8.722791,115.17229,2002-10-12,101.0,150.0,Jemaah Islamiya (JI)
Kuta,-8.722791,115.17229,2002-10-12,101.0,150.0,Jemaah Islamiya (JI)
Pardes Hanna,32.473605,34.975094,2002-10-22,16.0,50.0,Palestinian Islamic Jihad (PIJ)
Ariel,32.100242,35.166667,2002-10-27,4.0,0.0,Al-Aqsa Martyrs Brigade
Kefar Sava,32.178344,34.907985,2002-11-04,3.0,40.0,Jerusalem Groups Hebrew (Qvutzot Yerushalayim)
Malgobek,43.511111,44.6,2002-11-14,4.0,8.0,Unknown
Jerusalem,31.771599,35.2034,2002-11-21,12.0,47.0,Hamas (Islamic Resistance Movement)
Srinagar,34.08374,74.789902,2002-11-21,8.0,10.0,Lashkar-e-Taiba (LeT)
Erez,31.558212,34.543305,2002-11-22,2.0,4.0,Palestinian Islamic Jihad (PIJ)
Erez,31.558212,34.543305,2002-11-27,1.0,0.0,Popular Front for the Liberation of Palestine (PFLP)
Mombasa,-4.090508,39.647758,2002-11-28,16.0,0.0,Al-Qaida
Kabul,34.516895,69.147011,2002-12-19,1.0,2.0,Unknown
Grozny,43.320229,45.654491,2002-12-27,57.0,121.0,Chechen Rebels
Tel Aviv,32.08297,34.811886,2003-01-05,24.0,103.0,Al-Aqsa Martyrs Brigade
Arauquita,7.027345,-71.428555,2003-01-08,1.0,3.0,Unknown
Fortul,6.792231,-71.775544,2003-01-09,4.0,15.0,Unknown
Urus-Martan,43.127544,45.539974,2003-01-10,1.0,0.0,Chechen Rebels
Dugit,31.573713,34.489043,2003-01-17,1.0,0.0,Hamas (Islamic Resistance Movement)
Tame,6.46052,-71.72989,2003-01-26,6.0,6.0,Revolutionary Armed Forces of Colombia (FARC)
Unknown,8.885503,80.276733,2003-02-07,3.0,0.0,Liberation Tigers of Tamil Eelam (LTTE)
Al-Qarrarah,31.371314,34.335304,2003-02-09,3.0,4.0,Palestinian Islamic Jihad (PIJ)
Ramallah,31.907141,35.198219,2003-02-10,0.0,0.0,Hamas (Islamic Resistance Movement)
Kabacan,7.108488,124.826464,2003-02-20,1.0,10.0,Moro Islamic Liberation Front (MILF)
Halabjah,35.183333,45.983333,2003-02-26,4.0,0.0,Ansar al-Islam
Davao City,7.083241,125.600998,2003-03-04,24.0,150.0,Moro Islamic Liberation Front (MILF)
Haifa,32.793921,34.990615,2003-03-05,15.0,55.0,Hamas (Islamic Resistance Movement)
Kiryat Arba,31.529421,35.115659,2003-03-07,4.0,8.0,Hamas (Islamic Resistance Movement)
Nahal Negohot,31.492863,34.983321,2003-03-07,2.0,0.0,Hamas (Islamic Resistance Movement)
Unknown,,,2003-03-13,1.0,0.0,Unknown
Khurmal,35.302275,46.035178,2003-03-22,5.0,9.0,Ansar al-Islam
Najaf,32.000596,44.330818,2003-03-29,6.0,0.0,Unknown
Netanya,32.330281,34.852969,2003-03-30,1.0,26.0,Palestinian Islamic Jihad (PIJ)
Kefar Sava,32.178344,34.907985,2003-04-24,2.0,9.0,Al-Aqsa Martyrs Brigade
Srinagar,34.08374,74.789902,2003-04-26,5.0,3.0,Muslim Rebels
Tel Aviv,32.08297,34.811886,2003-04-30,4.0,,Al-Aqsa Martyrs Brigade
Kfar Darom,31.403091,34.369053,2003-05-08,1.0,0.0,Al-Aqsa Martyrs Brigade
Znamenskoye,43.6753,45.1277,2003-05-12,59.0,197.0,Chechen Rebels
Riyadh,24.64732,46.714581,2003-05-12,12.0,,Al-Qaida in Saudi Arabia
Riyadh,24.64732,46.714581,2003-05-12,11.0,,Al-Qaida in Saudi Arabia
Riyadh,24.64732,46.714581,2003-05-12,11.0,,Al-Qaida in Saudi Arabia
Ilaskhan-Yurt,43.277772,46.102834,2003-05-14,19.0,78.0,Chechen Rebels
Casablanca,33.59,-7.61,2003-05-16,19.0,20.0,Salafia Jihadia
Casablanca,33.59,-7.61,2003-05-16,6.0,20.0,Salafia Jihadia
Casablanca,33.59,-7.61,2003-05-16,6.0,20.0,Salafia Jihadia
Casablanca,33.59,-7.61,2003-05-16,6.0,20.0,Salafia Jihadia
Casablanca,33.59,-7.61,2003-05-16,8.0,20.0,Salafia Jihadia
Hebron,31.530243,35.094162,2003-05-17,3.0,0.0,Hamas (Islamic Resistance Movement)
Jerusalem,31.771599,35.2034,2003-05-18,8.0,20.0,Hamas (Islamic Resistance Movement)
Dahiat al Barid,31.845007,35.235069,2003-05-18,1.0,0.0,Hamas (Islamic Resistance Movement)
Afula,32.608879,35.289967,2003-05-19,4.0,30.0,Al-Aqsa Martyrs Brigade
Kfar Darom,31.403091,34.369053,2003-05-19,1.0,3.0,Hamas (Islamic Resistance Movement)
Ankara,39.930771,32.76754,2003-05-20,1.0,1.0,Devrimici Halk Kurtulus Cephesi (DHKP/C)
Unknown,43.40517,44.8203,2003-05-21,1.0,0.0,Unknown
Unknown,31.256876,34.316767,2003-05-30,1.0,0.0,Democratic Front for the Liberation of Palestine (DFLP)
Mozdok,43.645784,44.681995,2003-06-05,20.0,11.0,Chechen Rebels
Kabul,34.516895,69.147011,2003-06-07,6.0,29.0,Al-Qaida
Jerusalem,31.771599,35.2034,2003-06-11,17.0,75.0,Hamas (Islamic Resistance Movement)
Sdei Trumot,32.441178,35.484694,2003-06-19,2.0,,Palestinian Islamic Jihad (PIJ)
Grozny,43.320229,45.654491,2003-06-20,8.0,38.0,Chechen Rebels
Jammu,32.726602,74.857026,2003-06-28,14.0,7.0,Unknown
Quetta,30.200819,66.994354,2003-07-04,53.0,53.0,Lashkar-e-Jhangvi
Pokrovskoye-Streshnevo,55.751377,37.579914,2003-07-05,16.0,,Chechen Rebels
Kfar Yavetz,32.273945,34.965463,2003-07-07,1.0,3.0,Palestinian Islamic Jihad (PIJ)
Jammu district,32.726602,74.857026,2003-07-22,8.0,2.0,Al-Shuda Brigade
Shorkot,30.834238,72.075992,2003-07-28,1.0,5.0,Unknown
Mozdok,43.75,44.65,2003-08-01,40.0,76.0,Chechen Rebels
Jakarta,-6.208821,106.846046,2003-08-05,15.0,149.0,Jemaah Islamiya (JI)
Rosh Haayin,32.09792,34.954537,2003-08-12,3.0,10.0,Unknown
Ariel,32.100242,35.166667,2003-08-12,2.0,2.0,Unknown
Baghdad,33.303566,44.371773,2003-08-19,24.0,100.0,Armed Vanguards of a Second Mohammed Army
Jerusalem,31.771599,35.2034,2003-08-19,19.0,100.0,Hamas (Islamic Resistance Movement)
Jerusalem,31.771599,35.2034,2003-09-09,5.0,40.0,Hamas (Islamic Resistance Movement)
Tzrifin,31.958127,34.843658,2003-09-09,9.0,14.0,Hamas (Islamic Resistance Movement)
Arbil,36.192589,44.004623,2003-09-10,4.0,53.0,Tawhid and Jihad
Baghdad,33.303566,44.371773,2003-09-22,2.0,17.0,Unknown
Haifa,32.793921,34.990615,2003-10-04,23.0,50.0,Palestinian Islamic Jihad (PIJ)
Baghdad,33.303566,44.371773,2003-10-09,9.0,45.0,Unknown
Tulkarem,32.312052,35.026458,2003-10-09,1.0,3.0,Al-Aqsa Martyrs Brigade
Baghdad,33.303566,44.371773,2003-10-12,7.0,35.0,Al-Qaida in Iraq
Baghdad,33.303566,44.371773,2003-10-14,2.0,3.0,Unknown
Baghdad,33.303566,44.371773,2003-10-27,13.0,58.0,Unknown
Baghdad,33.303566,44.371773,2003-10-27,17.0,58.0,Unknown
Baghdad,33.303566,44.371773,2003-10-27,4.0,57.0,Unknown
Baghdad,33.303566,44.371773,2003-10-27,5.0,57.0,Unknown
Azzun,32.177105,35.056033,2003-11-03,1.0,0.0,Unknown
Riyadh,24.64732,46.714581,2003-11-08,17.0,122.0,Al-Qaida in Saudi Arabia
Nasiriyah,31.044371,46.261452,2003-11-12,27.0,80.0,Unknown
Istanbul,41.106178,28.689863,2003-11-14,11.0,151.0,Great Eastern Islamic Raiders Front (IBDA-C)
Istanbul,41.106178,28.689863,2003-11-14,11.0,151.0,Great Eastern Islamic Raiders Front (IBDA-C)
Istanbul,41.106178,28.689863,2003-11-20,16.0,224.0,Al-Qaida
Istanbul,41.106178,28.689863,2003-11-20,16.0,224.0,Al-Qaida
Kirkuk,35.45211,44.375465,2003-11-20,5.0,40.0,Unknown
Bardala,32.386571,35.480025,2003-12-03,0.0,0.0,Palestinian Islamic Jihad (PIJ)
Yessentuki,44.033333,42.85,2003-12-05,47.0,170.0,Chechen Rebels
Rosh Haayin,32.09792,34.954537,2003-12-08,0.0,0.0,Al-Aqsa Martyrs Brigade
Tverskoy,55.751377,37.579914,2003-12-09,6.0,14.0,Chechen Rebels
Arbil,36.192589,44.004623,2003-12-24,4.0,101.0,Unknown
Tel Aviv,32.08297,34.811886,2003-12-25,4.0,13.0,Popular Front for the Liberation of Palestine (PFLP)
Rawalpindi,33.594013,73.069077,2003-12-25,15.0,46.0,Al-Qaida
Karbala,32.604393,44.007145,2003-12-27,6.0,56.0,Baathist extremists
Karbala,32.604393,44.007145,2003-12-27,4.0,56.0,Baathist extremists
Karbala,32.604393,44.007145,2003-12-27,13.0,55.0,Baathist extremists
Qedumim,32.213105,35.157601,2004-01-11,1.0,0.0,Palestinian Islamic Jihad (PIJ)
Erez,31.558212,34.543305,2004-01-14,5.0,7.0,Hamas (Islamic Resistance Movement)
Baqubah,33.74324,44.623825,2004-01-14,5.0,30.0,Unknown
Baghdad,33.303566,44.371773,2004-01-18,25.0,100.0,Unknown
Zhengzhou,34.746611,113.625355,2004-01-23,2.0,3.0,Unknown
Kabul,34.516895,69.147011,2004-01-27,3.0,10.0,Unknown
Kabul,34.516895,69.147011,2004-01-28,2.0,4.0,Taliban
Baghdad,33.303566,44.371773,2004-01-28,3.0,15.0,Unknown
Jerusalem,31.771599,35.2034,2004-01-29,11.0,50.0,Al-Aqsa Martyrs Brigade
Mosul,36.354145,43.14357,2004-01-31,10.0,45.0,Unknown
Arbil,36.192589,44.004623,2004-02-01,50.0,134.0,Unknown
Arbil,36.192589,44.004623,2004-02-01,50.0,133.0,Unknown
Iskandariyah,32.887157,44.341637,2004-02-10,71.0,150.0,Tawhid and Jihad
Baghdad,33.303566,44.371773,2004-02-11,47.0,,Unknown
Hillah,32.469238,44.416637,2004-02-18,12.0,100.0,Tawhid and Jihad
Jerusalem,31.771599,35.2034,2004-02-22,8.0,60.0,Al-Aqsa Martyrs Brigade
Kirkuk,35.45211,44.375465,2004-02-23,10.0,52.0,Unknown
Karbala,32.604393,44.007145,2004-03-02,110.0,233.0,Tawhid and Jihad
Baghdad,33.303566,44.371773,2004-03-02,58.0,167.0,Tawhid and Jihad
Erez,31.558212,34.543305,2004-03-06,6.0,20.0,Hamas (Islamic Resistance Movement)
Istanbul,41.106178,28.689863,2004-03-09,2.0,6.0,Unknown
Ashdod,31.821444,34.665169,2004-03-14,12.0,20.0,Hamas (Islamic Resistance Movement)
Brescia,45.539838,10.222956,2004-03-28,1.0,0.0,Moroccan extremists
Tashkent,41.266667,69.216667,2004-03-29,6.0,20.0,Unknown
Hillah,32.469238,44.416637,2004-03-30,1.0,6.0,Unknown
Yalangach,41.364635,69.38687,2004-03-31,23.0,5.0,Unknown
Between Nazran and Magas,43.228362,44.8335,2004-04-06,1.0,8.0,Riyadus-Salikhin Reconnaissance and Sabotage Battalion of Chechen Martyrs
Quetta,30.200819,66.994354,2004-04-15,11.0,0.0,Taliban (Pakistan)
Erez,31.558212,34.543305,2004-04-17,2.0,3.0,Unknown
Riyadh,24.64732,46.714581,2004-04-23,5.0,145.0,Al-Haramayn Brigades
Basra,30.510054,47.778095,2004-04-24,6.0,4.0,Tawhid and Jihad
Basra district,30.5,47.816667,2004-04-24,3.0,4.0,Tawhid and Jihad
Tikrit,34.621521,43.668377,2004-04-24,5.0,16.0,Unknown
Unknown,31.357597,34.327379,2004-04-28,1.0,4.0,Hamas (Islamic Resistance Movement)
Baghdad,33.303566,44.371773,2004-05-06,7.0,25.0,Tawhid and Jihad
Karachi,24.891115,67.143311,2004-05-07,18.0,100.0,Lashkar-e-Jhangvi
Grozny,43.320229,45.654491,2004-05-09,4.0,53.0,Riyadus-Salikhin Reconnaissance and Sabotage Battalion of Chechen Martyrs
Baghdad,33.303566,44.371773,2004-05-17,8.0,7.0,Unknown
Beqa'ot,32.243008,35.456097,2004-05-22,1.0,4.0,Unknown
Baghdad,33.303566,44.371773,2004-05-31,3.0,25.0,Unknown
Baghdad,33.303566,44.371773,2004-06-06,10.0,,Tawhid and Jihad
Baquba,33.79477,44.599747,2004-06-08,5.0,0.0,Unknown
Baghdad,33.303566,44.371773,2004-06-13,12.0,,Unknown
Baghdad,33.303566,44.371773,2004-06-24,5.0,,Unknown
Ramallah,31.907141,35.198219,2004-07-02,0.0,0.0,Al-Aqsa Martyrs Brigade
Khalis,33.848618,44.522125,2004-07-06,9.0,37.0,Unknown
Colombo,6.941837,79.861687,2004-07-07,5.0,9.0,Liberation Tigers of Tamil Eelam (LTTE)
Baghdad,33.303566,44.371773,2004-07-14,10.0,20.0,Unknown
Hadithah,34.160587,42.37254,2004-07-15,10.0,27.0,Unknown
Karbala,32.604393,44.007145,2004-07-15,2.0,0.0,Unknown
Baghdad,33.303566,44.371773,2004-07-17,6.0,,Tawhid and Jihad
Mahmudiyah,33.057991,44.354839,2004-07-17,2.0,50.0,Tawhid and Jihad
Baghdad,33.303566,44.371773,2004-07-19,10.0,,Unknown
Mosul,36.354145,43.14357,2004-07-26,2.0,7.0,Unknown
Baqubah,33.74324,44.623825,2004-07-28,70.0,56.0,Tawhid and Jihad
Tashkent,41.266667,69.216667,2004-07-30,3.0,1.0,Islamic Jihad Group (IJG)
Tashkent,41.266667,69.216667,2004-07-30,2.0,1.0,Islamic Jihad Group (IJG)
Tashkent,41.266667,69.216667,2004-07-30,2.0,4.0,Islamic Jihad Group (IJG)
Fateh Jang,33.565614,72.643393,2004-07-30,9.0,50.0,Islambouli Brigades of al-Qaida
Mosul,36.354145,43.14357,2004-08-01,5.0,51.0,Unknown
Nablus,32.222271,35.253506,2004-08-04,0.0,0.0,Unknown
Rostov-on-Don,47.236383,39.579933,2004-08-24,46.0,0.0,Islambouli Brigades of al-Qaida
Gluboky,54.080865,36.422333,2004-08-24,44.0,0.0,Islambouli Brigades of al-Qaida
Baghdad,33.303566,44.371773,2004-08-24,5.0,10.0,Tawhid and Jihad
Meshchansky,55.751377,37.579914,2004-08-31,11.0,50.0,Islambouli Brigades of al-Qaida
Beslan,43.191626,44.541763,2004-09-01,344.0,727.0,Riyadus-Salikhin Reconnaissance and Sabotage Battalion of Chechen Martyrs
Inirida,3.86547,-67.92671,2004-09-03,2.0,2.0,Revolutionary Armed Forces of Colombia (FARC)
Kirkuk,35.45211,44.375465,2004-09-04,20.0,36.0,Tawhid and Jihad
Moscow,55.751377,37.579914,2004-09-05,10.0,51.0,Islambouli Brigades of al-Qaida
Jakarta,-6.208821,106.846046,2004-09-09,10.0,182.0,Jemaah Islamiya (JI)
Baghdad,33.303566,44.371773,2004-09-12,1.0,0.0,Tawhid and Jihad
Abu Ghraib,33.31065,44.038208,2004-09-12,1.0,0.0,Tawhid and Jihad
Qalqilya,32.189083,34.971905,2004-09-14,1.0,3.0,Unknown
Baghdad,33.303566,44.371773,2004-09-22,8.0,53.0,Tawhid and Jihad
Jerusalem,31.784838,35.224613,2004-09-22,3.0,17.0,Al-Aqsa Martyrs Brigade
Baghdad,33.303566,44.371773,2004-09-22,6.0,20.0,Tawhid and Jihad
Baghdad,33.303566,44.371773,2004-09-22,2.0,19.0,Tawhid and Jihad
Karma,33.403057,43.911865,2004-09-26,2.0,,Unknown
Abu Ghraib,33.31065,44.038208,2004-09-30,4.0,63.0,Unknown
Sialkot,32.493537,74.530343,2004-10-01,31.0,51.0,Unknown
Anah,34.367733,41.985275,2004-10-06,16.0,30.0,Tawhid and Jihad
Taba,29.490095,34.899447,2004-10-07,32.0,159.0,Abdullah Azzam Brigades
Ras Shitan,29.126222,34.684259,2004-10-07,3.0,6.0,Abdullah Azzam Brigades
Ras Shitan,29.122501,34.683143,2004-10-07,2.0,6.0,Abdullah Azzam Brigades
Lahore,31.50547,74.34288,2004-10-10,4.0,,Unknown
Baghdad,33.303566,44.371773,2004-10-10,17.0,,Unknown
Baghdad,33.303566,44.371773,2004-10-10,4.0,,Unknown
Mosul,36.354145,43.14357,2004-10-11,3.0,27.0,Tawhid and Jihad
Mahawil,32.654751,44.408989,2004-10-12,8.0,12.0,Unknown
Baghdad,33.303566,44.371773,2004-10-14,12.0,,Tawhid and Jihad
Baghdad,33.303566,44.371773,2004-10-15,11.0,4.0,Unknown
Baghdad,33.303566,44.371773,2004-10-17,7.0,26.0,Unknown
Mosul,36.354145,43.14357,2004-10-17,6.0,15.0,Unknown
Samarra,34.208416,43.890713,2004-10-20,10.0,14.0,Unknown
Kabul,34.516895,69.147011,2004-10-23,3.0,9.0,Taliban
Al-Baghdadi,33.864799,42.536385,2004-10-23,17.0,40.0,Unknown
Ishaqi,34.023571,44.031361,2004-10-23,5.0,6.0,Unknown
Mosul,36.354145,43.14357,2004-10-25,3.0,1.0,Unknown
Mosul,36.354145,43.14357,2004-10-25,1.0,2.0,Unknown
Baghdad,33.303566,44.371773,2004-10-30,8.0,19.0,1920 Revolution Brigades
Tel Aviv,32.08297,34.811886,2004-11-01,5.0,32.0,Popular Front for the Liberation of Palestine (PFLP)
Baghdad,33.303566,44.371773,2004-11-02,9.0,10.0,Unknown
Makhachkala,42.98542,47.450668,2004-11-02,1.0,3.0,Unknown
Baghdad,33.303566,44.371773,2004-11-08,6.0,0.0,Unknown
Sunderbani,33.049293,74.490661,2004-11-08,1.0,4.0,Unknown
Baghdad,33.303566,44.371773,2004-11-11,18.0,30.0,Unknown
Baghdad,33.303566,44.371773,2004-11-18,3.0,4.0,Unknown
Baghdad,33.303566,44.371773,2004-11-19,4.0,13.0,Unknown
Baghdad,33.318595,44.513997,2004-11-19,6.0,10.0,Unknown
Samarra,34.208416,43.890713,2004-11-25,3.0,13.0,Unknown
Samarra,34.208416,43.890713,2004-11-25,1.0,0.0,Unknown
Al-Baghdadi,33.864799,42.536385,2004-11-29,13.0,10.0,Unknown
Latifiyah,32.982933,44.361595,2004-12-01,0.0,7.0,Unknown
Sopore,34.288891,74.463715,2004-12-03,7.0,10.0,Al-Mansoorian
Nablus,32.222271,35.253506,2004-12-04,0.0,0.0,Popular Front for the Liberation of Palestine (PFLP)
Baghdad,33.303566,44.371773,2004-12-14,2.0,12.0,Al-Qaida in Iraq
Baghdad,33.303566,44.371773,2004-12-15,8.0,12.0,Unknown
Mosul,36.354145,43.14357,2004-12-21,23.0,66.0,Ansar al-Sunna
Baghdad,33.303566,44.371773,2004-12-26,9.0,0.0,Unknown
Baghdad,33.303566,44.371773,2004-12-28,15.0,48.0,Unknown
Riyadh,24.64732,46.714581,2004-12-29,8.0,90.0,Al-Qaida in Saudi Arabia
Siniyah,32.503611,44.313056,2004-12-31,7.0,,Unknown
Baghdad,33.303566,44.371773,2005-01-01,5.0,,Unknown
Taza Khurmatu,35.303047,44.329933,2005-01-02,1.0,,Unknown
Balad,34.010471,44.148235,2005-01-02,28.0,6.0,Unknown
Baghdad,33.303566,44.371773,2005-01-03,5.0,24.0,Ansar al-Sunna
Baqubah,33.74324,44.623825,2005-01-05,7.0,13.0,Unknown
Hillah,32.469238,44.416637,2005-01-05,11.0,41.0,Unknown
Mahawil,32.654751,44.408989,2005-01-08,5.0,19.0,Unknown
Tikrit,34.621521,43.668377,2005-01-11,8.0,8.0,Al-Qaida in Iraq
Baiji,34.92485,43.491413,2005-01-17,8.0,15.0,Unknown
Gosh Qatif,31.355579,34.274364,2005-01-18,2.0,8.0,Hamas (Islamic Resistance Movement)
Baghdad,33.303566,44.371773,2005-01-18,5.0,8.0,Unknown
Basra,30.510054,47.778095,2005-01-20,3.0,,Al-Qaida in Iraq
Baghdad,33.303566,44.371773,2005-01-21,15.0,,Sunni Muslim extremists
Usifia,,,2005-01-21,12.0,23.0,Al-Qaida in Iraq
Baghdad,33.303566,44.371773,2005-01-24,1.0,10.0,Unknown
Baghdad,33.303566,44.371773,2005-01-26,1.0,8.0,Unknown
Baqubah,33.74324,44.623825,2005-02-07,16.0,17.0,Unknown
Mosul,36.354145,43.14357,2005-02-07,12.0,7.0,Al-Qaida in Iraq
Baghdad,33.303566,44.371773,2005-02-08,21.0,27.0,Al-Qaida in Iraq
Balad Ruz,33.693947,45.067425,2005-02-11,14.0,22.0,Unknown
Musayib,32.777344,44.289352,2005-02-12,18.0,21.0,Al-Qaida in Iraq
Baghdad,33.303566,44.371773,2005-02-18,15.0,33.0,Unknown
Baghdad,33.303566,44.371773,2005-02-18,4.0,8.0,Unknown
Baghdad,33.303566,44.371773,2005-02-19,4.0,37.0,Unknown
Baqubah,33.74324,44.623825,2005-02-19,3.0,,Al-Qaida in Iraq
Baghdad,33.303566,44.371773,2005-02-19,19.0,,Unknown
Tikrit,34.621521,43.668377,2005-02-24,12.0,35.0,Unknown
Tel Aviv,32.08297,34.811886,2005-02-25,5.0,53.0,Palestinian Islamic Jihad (PIJ)
Hillah,32.469238,44.416637,2005-02-28,110.0,130.0,Unknown
Baghdad,33.303566,44.371773,2005-03-02,15.0,30.0,Unknown
Baghdad,33.303566,44.371773,2005-03-02,7.0,2.0,Al-Qaida in Iraq
Baghdad,33.303566,44.371773,2005-03-03,9.0,7.0,Al-Qaida in Iraq
Balad,34.010471,44.148235,2005-03-07,16.0,23.0,Al-Qaida in Iraq
Baqubah,33.74324,44.623825,2005-03-07,11.0,,Al-Qaida in Iraq
Baghdad,33.303566,44.371773,2005-03-09,4.0,30.0,Unknown
Mosul,36.354145,43.14357,2005-03-10,47.0,80.0,Unknown
Yusufiyah,33.07835,44.254719,2005-03-14,5.0,0.0,Unknown
Baghdad,33.303566,44.371773,2005-03-15,1.0,4.0,Unknown
Doha,25.29161,51.530437,2005-03-19,2.0,12.0,Organization of Soldiers of the Levant
Fatehpur,31.177809,71.209295,2005-03-19,51.0,,Unknown
Mosul,36.354145,43.14357,2005-03-20,4.0,2.0,Al-Qaida in Iraq
Fallujah,33.349159,43.784199,2005-03-20,3.0,0.0,Unknown
Ramadi,33.420948,43.295662,2005-03-24,11.0,9.0,Islamic Army in Iraq (al-Jaish al-Islami fi al-Iraq)
Musayib,32.777344,44.289352,2005-03-28,6.0,0.0,Unknown
Jalalabad,34.417122,70.449593,2005-03-30,1.0,0.0,Unknown
Tuz Khormato,34.881348,44.62513,2005-03-31,6.0,16.0,Unknown
Abu Ghraib,33.31065,44.038208,2005-04-04,1.0,4.0,Unknown
Mosul,36.354145,43.14357,2005-04-09,2.0,10.0,Unknown
Samarra,34.208416,43.890713,2005-04-11,4.0,27.0,Unknown
Baghdad,33.303566,44.371773,2005-04-14,20.0,24.0,Al-Qaida in Iraq
Tikrit,34.621521,43.668377,2005-04-14,1.0,,Unknown
Mahawil,32.654751,44.408989,2005-04-14,5.0,6.0,Unknown
Baghdad,33.303566,44.371773,2005-04-15,1.0,5.0,Al-Qaida in Iraq
Baghdad,33.303566,44.371773,2005-04-19,6.0,20.0,Unknown
Abu Ghraib,33.31065,44.038208,2005-04-23,10.0,20.0,Al-Qaida in Iraq
Ramadi,33.420948,43.295662,2005-04-23,1.0,,Unknown
Cairo,30.084629,31.334314,2005-04-30,1.0,7.0,Unknown
Mosul,36.354145,43.14357,2005-04-30,2.0,4.0,Unknown
Baqubah,33.74324,44.623825,2005-04-30,5.0,20.0,Unknown
Baghdad,33.303566,44.371773,2005-04-30,2.0,10.0,Unknown
Baghdad,33.303566,44.371773,2005-04-30,3.0,10.0,Al-Qaida in Iraq
Tal Afar,36.376823,42.448875,2005-05-01,25.0,30.0,Unknown
Baghdad,33.303566,44.371773,2005-05-01,4.0,12.0,Al-Qaida in Iraq
Mosul,36.354145,43.14357,2005-05-02,3.0,15.0,Unknown
Arbil,36.192589,44.004623,2005-05-04,60.0,150.0,Ansar al-Sunna
Baghdad,33.303566,44.371773,2005-05-04,10.0,17.0,Unknown
Baghdad,33.287345,44.319487,2005-05-05,14.0,6.0,Unknown
Tikrit,34.621521,43.668377,2005-05-06,8.0,,Unknown
Suwayrah,32.925266,44.770956,2005-05-06,59.0,44.0,Unknown
Kabul,34.516895,69.147011,2005-05-07,3.0,6.0,Unknown
Baghdad,33.303566,44.371773,2005-05-07,22.0,35.0,Al-Qaida in Iraq
Hadithah,34.160587,42.37254,2005-05-07,4.0,99.0,Unknown
Baghdad,33.303566,44.371773,2005-05-09,4.0,8.0,Unknown
Baghdad,33.303566,44.371773,2005-05-10,7.0,16.0,Unknown
Tikrit,34.621521,43.668377,2005-05-11,28.0,60.0,Ansar al-Sunna
Hawijah,35.326122,43.780811,2005-05-11,31.0,35.0,Unknown
Baghdad,33.303566,44.371773,2005-05-11,4.0,99.0,Unknown
Baghdad,33.303566,44.371773,2005-05-11,3.0,99.0,Unknown
Baghdad,33.303566,44.371773,2005-05-12,15.0,,Al-Qaida in Iraq
Baqubah,33.74324,44.623825,2005-05-13,4.0,6.0,Unknown
Baghdad,33.303566,44.371773,2005-05-14,6.0,12.0,Unknown
Baqubah,33.74324,44.623825,2005-05-15,1.0,3.0,Unknown
Baghdad,33.303566,44.371773,2005-05-20,3.0,3.0,Unknown
Tuz Khormato,34.881348,44.62513,2005-05-23,6.0,18.0,Ansar al-Sunna
Tal Afar,36.376823,42.448875,2005-05-23,20.0,20.0,Unknown
Mahmudiyah,33.057991,44.354839,2005-05-23,8.0,23.0,Unknown
Islamabad,33.671638,73.056068,2005-05-27,20.0,100.0,Unknown
Baghdad,33.303566,44.371773,2005-05-29,3.0,6.0,Unknown
Baghdad,33.303566,44.371773,2005-05-29,2.0,,Unknown
Hillah,32.469238,44.416637,2005-05-30,34.0,108.0,Al-Qaida in Iraq
Karachi,24.891115,67.143311,2005-05-30,5.0,23.0,Unknown
Hillah,32.469238,44.416637,2005-05-30,27.0,128.0,Al-Qaida in Iraq
Kandahar,31.631083,65.742226,2005-06-01,21.0,52.0,Al-Qaida
Baghdad,33.303566,44.371773,2005-06-11,1.0,0.0,Al-Qaida in Iraq
Baghdad,33.303566,44.371773,2005-06-13,3.0,,Al-Qaida in Iraq
Kirkuk,35.45211,44.375465,2005-06-14,20.0,65.0,Ansar al-Islam
Fallujah,33.349159,43.784199,2005-06-18,2.0,11.0,Unknown
Baghdad,33.303566,44.371773,2005-06-19,23.0,,Al-Qaida in Iraq
Arbil,36.192589,44.004623,2005-06-20,14.0,130.0,Unknown
Baghdad,33.303566,44.371773,2005-06-23,20.0,50.0,Unknown
Samarra,34.208416,43.890713,2005-06-26,7.0,0.0,Unknown
Baghdad,33.303566,44.371773,2005-07-01,2.0,0.0,Al-Qaida in Iraq
Ankara,39.930771,32.76754,2005-07-01,1.0,0.0,Kurdistan Workers' Party (PKK)
Baghdad,33.303566,44.371773,2005-07-02,20.0,21.0,Al-Qaida in Iraq
Hillah,32.469238,44.416637,2005-07-02,8.0,26.0,Al-Qaida in Iraq
Ramadi,33.420948,43.295662,2005-07-03,1.0,,Unknown
Babil,32.539722,44.414722,2005-07-03,9.0,31.0,Unknown
Ayodhya,26.8,82.2,2005-07-05,6.0,0.0,Unknown
Kirkuk,35.45211,44.375465,2005-07-05,2.0,1.0,Unknown
London,51.504387,-0.140041,2005-07-07,8.0,171.0,Al-Qaida
London,51.504387,-0.140041,2005-07-07,27.0,340.0,Al-Qaida
London,51.504387,-0.140041,2005-07-07,7.0,163.0,Al-Qaida
London,51.504387,-0.140041,2005-07-07,14.0,110.0,Al-Qaida
Baghdad,33.287345,44.319487,2005-07-10,25.0,47.0,Al-Qaida in Iraq
Mosul,36.354145,43.14357,2005-07-10,4.0,3.0,Unknown
Walid Border Crossing,33.433811,38.922878,2005-07-10,9.0,,Unknown
Kirkuk,35.45211,44.375465,2005-07-10,4.0,10.0,Unknown
Unknown,,,2005-07-11,2.0,,Unknown
Netanya,32.325073,34.854663,2005-07-12,3.0,40.0,Palestinian Islamic Jihad (PIJ)
Kirkuk,35.45211,44.375465,2005-07-12,3.0,15.0,Unknown
Shirqat,35.505731,43.257433,2005-07-13,2.0,2.0,Unknown
Baghdad,33.303566,44.371773,2005-07-13,29.0,70.0,Unknown
Jalula,34.271034,45.163567,2005-07-13,3.0,16.0,Unknown
Baghdad,33.303566,44.371773,2005-07-14,3.0,13.0,Al-Qaida in Iraq
Baghdad,33.303566,44.371773,2005-07-15,1.0,2.0,Unknown
Baghdad,33.303566,44.371773,2005-07-15,4.0,0.0,Unknown
Balad,34.010471,44.148235,2005-07-15,9.0,15.0,Unknown
Musayib,32.777344,44.289352,2005-07-16,54.0,82.0,Unknown
Mosul,36.354145,43.14357,2005-07-16,4.0,18.0,Unknown
Ajbalah,32.114722,44.942778,2005-07-16,8.0,0.0,Unknown
Baghdad,33.303566,44.371773,2005-07-16,3.0,9.0,Unknown
Baghdad,33.303566,44.371773,2005-07-16,8.0,20.0,Al-Qaida in Iraq
Baghdad,33.303566,44.371773,2005-07-16,2.0,14.0,Unknown
Baghdad,33.303566,44.371773,2005-07-17,4.0,8.0,Unknown
Baghdad,33.303566,44.371773,2005-07-17,8.0,3.0,Unknown
Mahmudiyah,33.057991,44.354839,2005-07-17,7.0,9.0,Unknown
Baghdad,33.318595,44.513997,2005-07-17,7.0,0.0,Unknown
Baghdad,33.303566,44.371773,2005-07-20,8.0,25.0,Unknown
Sharm el-Sheikh,27.915557,34.329886,2005-07-23,91.0,110.0,Abdullah Azzam Brigades
Baghdad,33.303566,44.371773,2005-07-24,23.0,30.0,Unknown
Unknown,,,2005-07-24,1.0,3.0,Unknown
Baghdad,33.303566,44.371773,2005-07-25,12.0,10.0,Unknown
Baghdad,33.303566,44.371773,2005-07-25,3.0,25.0,Unknown
Baghdad,33.303566,44.371773,2005-07-27,5.0,10.0,Unknown
Rabiaa,36.803982,42.093945,2005-07-29,44.0,57.0,Al-Qaida in Iraq
Baghdad,33.303566,44.371773,2005-07-30,5.0,20.0,Unknown
Dakok,35.46979,44.396337,2005-08-04,5.0,5.0,Unknown
Salerno,33.363333,69.956389,2005-08-06,0.0,0.0,Unknown
Tikrit,34.621521,43.668377,2005-08-07,3.0,12.0,Unknown
Mahawil,32.654751,44.408989,2005-08-14,3.0,4.0,Unknown
Baghdad,33.303566,44.371773,2005-08-15,1.0,15.0,Unknown
Baqubah,33.74324,44.623825,2005-08-23,8.0,20.0,Al-Qaida in Iraq
Beersheba,31.248484,34.787853,2005-08-28,1.0,48.0,Al-Aqsa Martyrs Brigade
Baghdad,33.303566,44.371773,2005-09-05,11.0,16.0,Unknown
Pishin district,30.703012,67.09404,2005-09-14,1.0,4.0,Unknown
Tuz Khormato,34.881348,44.62513,2005-09-16,10.0,21.0,Unknown
Baghdad,33.303566,44.371773,2005-09-16,4.0,3.0,Al-Qaida in Iraq
Nahrwan,33.375759,44.702866,2005-09-17,30.0,38.0,Al-Qaida in Iraq
Abu Ghraib,33.31065,44.038208,2005-09-17,8.0,8.0,Unknown
Mahmudiyah,33.057991,44.354839,2005-09-19,8.0,,Unknown
Mosul,36.354145,43.14357,2005-09-19,4.0,2.0,Unknown
Baghdad,33.303566,44.371773,2005-09-23,8.0,20.0,Unknown
Baghdad,33.303566,44.371773,2005-09-23,7.0,12.0,Unknown
Hillah,32.469238,44.416637,2005-09-25,2.0,36.0,Unknown
Baghdad,33.303566,44.371773,2005-09-25,10.0,12.0,Al-Qaida in Iraq
Baghdad,33.303566,44.371773,2005-09-26,8.0,30.0,Unknown
Baqubah,33.74324,44.623825,2005-09-27,8.0,23.0,Unknown
Kabul,34.516895,69.147011,2005-09-28,10.0,28.0,Taliban
Tal Afar,36.376823,42.448875,2005-09-28,6.0,30.0,Al-Qaida in Iraq
Balad,34.010471,44.148235,2005-09-29,65.0,70.0,Unknown
Hillah,32.469238,44.416637,2005-09-30,11.0,30.0,Unknown
Jimbaran,-8.790422,115.159278,2005-10-01,13.0,50.0,Jemaah Islamiya (JI)
Kuta,-8.722791,115.17229,2005-10-01,12.0,50.0,Jemaah Islamiya (JI)
Baghdad,33.303566,44.371773,2005-10-04,4.0,7.0,Unknown
Kandahar,31.617667,65.675942,2005-10-05,2.0,4.0,Unknown
Baghdad,33.303566,44.371773,2005-10-06,11.0,8.0,Unknown
Kandahar,31.617667,65.675942,2005-10-09,1.0,4.0,Taliban
Kandahar,31.617667,65.675942,2005-10-10,5.0,5.0,Taliban
Kandahar,31.617667,65.675942,2005-10-10,1.0,0.0,Taliban
Tal Afar,36.376823,42.448875,2005-10-11,25.0,36.0,Unknown
Baghdad,33.303566,44.371773,2005-10-11,6.0,12.0,Unknown
Baghdad,33.303566,44.371773,2005-10-12,1.0,10.0,Unknown
Baghdad,33.303566,44.371773,2005-10-24,14.0,12.0,Unknown
Unknown,,,2005-10-25,1.0,,Unknown
Hadera,32.434788,34.92157,2005-10-26,6.0,25.0,Palestinian Islamic Jihad (PIJ)
Srinagar,34.067275,74.765379,2005-11-02,5.0,18.0,Jaish-e-Mohammad (JeM)
Musayib,32.777344,44.289352,2005-11-02,21.0,60.0,Unknown
Lashkar Gah,31.60063,64.369652,2005-11-07,1.0,0.0,Taliban
Amman,31.950001,35.933331,2005-11-09,20.0,34.0,Al-Qaida in Iraq
Amman,31.950001,35.933331,2005-11-09,20.0,33.0,Al-Qaida in Iraq
Amman,31.950001,35.933331,2005-11-09,21.0,33.0,Al-Qaida in Iraq
Baqubah,33.74324,44.623825,2005-11-09,8.0,9.0,Unknown
Baghdad,33.303566,44.371773,2005-11-10,35.0,25.0,Al-Qaida in Iraq
Tikrit,34.621521,43.668377,2005-11-10,7.0,14.0,Unknown
Kabul,34.516895,69.147011,2005-11-14,2.0,8.0,Taliban
Kabul,34.516895,69.147011,2005-11-14,1.0,4.0,Taliban
Srinagar,34.08374,74.789902,2005-11-16,2.0,45.0,Al-Arifeen
Kandahar,31.617667,65.675942,2005-11-16,4.0,4.0,Taliban
Baghdad,33.303566,44.371773,2005-11-18,8.0,43.0,Unknown
Khanaqin,34.347343,45.383274,2005-11-18,77.0,90.0,Unknown
Abu Saydah,33.926586,44.772064,2005-11-19,37.0,50.0,Unknown
Mahmudiyah,33.057991,44.354839,2005-11-24,32.0,27.0,Unknown
Samarra,34.208416,43.890713,2005-11-26,4.0,9.0,Unknown
Gazipur,24.092858,90.419022,2005-11-29,7.0,50.0,Jama'atul Mujahideen Bangladesh (JMB)
Chittagong,22.341896,91.815117,2005-11-29,3.0,18.0,Jama'atul Mujahideen Bangladesh (JMB)
Gazipur,24.092858,90.419022,2005-12-01,2.0,30.0,Jama'atul Mujahideen Bangladesh (JMB)
Netanya,32.330472,34.851429,2005-12-05,6.0,40.0,Palestinian Islamic Jihad (PIJ)
Chittagong,22.341896,91.815117,2005-12-05,3.0,25.0,Jama'atul Mujahideen Bangladesh (JMB)
Gazipur district,24.092858,90.415306,2005-12-05,5.0,25.0,Jama'atul Mujahideen Bangladesh (JMB)
Baghdad,33.303566,44.371773,2005-12-06,36.0,72.0,Al-Qaida in Iraq
Netrokona district,24.886101,90.729134,2005-12-08,8.0,50.0,Jama'atul Mujahideen Bangladesh (JMB)
Baghdad,33.303566,44.371773,2005-12-18,1.0,,Unknown
Tulkarem,32.312052,35.026458,2005-12-29,4.0,8.0,Palestinian Islamic Jihad (PIJ)
Baqubah,33.74324,44.623825,2006-01-02,7.0,0.0,Unknown
Muqdadiyah,33.953167,44.921906,2006-01-04,32.0,40.0,Unknown
Karbala,32.604393,44.007145,2006-01-05,40.0,50.0,Unknown
Tarin Kot,32.666404,65.903629,2006-01-05,10.0,0.0,Unknown
Ramadi,33.420948,43.295662,2006-01-05,30.0,40.0,Unknown
Trincomalee,8.577826,81.218719,2006-01-07,15.0,2.0,Liberation Tigers of Tamil Eelam (LTTE)
Baghdad,33.303566,44.371773,2006-01-09,2.0,15.0,Al-Qaida in Iraq
Jenin,32.460617,35.301247,2006-01-12,1.0,0.0,Unknown
Kandahar,31.631083,65.742226,2006-01-15,3.0,,Taliban
Spin Boldak,31.002735,66.405617,2006-01-16,22.0,20.0,Unknown
Baghdad,33.303566,44.371773,2006-01-19,23.0,26.0,Unknown
Tel Aviv,32.08297,34.811886,2006-01-19,1.0,20.0,Palestinian Islamic Jihad (PIJ)
Taza Khurmatu,35.303047,44.329933,2006-01-20,1.0,5.0,Unknown
Mahmudiyah,33.057991,44.354839,2006-01-23,2.0,5.0,Unknown
Bak district,33.509963,70.121765,2006-02-01,5.0,4.0,Taliban
Baghdad,33.303566,44.371773,2006-02-01,8.0,50.0,Unknown
Mazari Sharif,36.70993,67.1157,2006-02-06,0.0,0.0,Al-Qaida
Kandahar,31.631083,65.742226,2006-02-07,13.0,11.0,Taliban
Hangu,33.528893,71.056122,2006-02-09,31.0,50.0,Unknown
Baghdad,33.303566,44.371773,2006-02-12,4.0,4.0,Unknown
Baghdad,33.303566,44.371773,2006-02-13,11.0,40.0,Unknown
Khost,33.335258,69.928467,2006-02-14,0.0,0.0,Unknown
Unknown,34.157052,70.607992,2006-02-19,1.0,0.0,Unknown
Baghdad,33.303566,44.371773,2006-02-19,1.0,4.0,Unknown
Mahmudiyah,33.057991,44.354839,2006-02-19,0.0,4.0,Unknown
Baghdad,33.303566,44.371773,2006-02-20,12.0,8.0,Unknown
Mosul,36.354145,43.14357,2006-02-20,5.0,21.0,Mujahedeen Shura Council
Abqaiq,25.932228,49.664617,2006-02-24,4.0,8.0,Al-Qaida in the Arabian Peninsula (AQAP)
Baghdad,33.303566,44.371773,2006-02-28,23.0,51.0,Unknown
Karachi,24.891115,67.143311,2006-03-02,5.0,50.0,Unknown
Kandahar,31.617667,65.675942,2006-03-03,1.0,5.0,Taliban
Van,38.504136,43.375265,2006-03-09,4.0,18.0,Unknown
Kabul,34.516895,69.147011,2006-03-12,4.0,5.0,Taliban
Baghdad,33.303566,44.371773,2006-03-23,4.0,5.0,Unknown
Trincomalee,8.577826,81.218719,2006-03-26,14.0,,Liberation Tigers of Tamil Eelam (LTTE)
Tal Afar district,36.374029,42.451435,2006-03-27,30.0,,Unknown
Baghdad,33.303566,44.371773,2006-03-28,2.0,12.0,Mujahedeen Shura Council
Kedumim,32.213552,35.157375,2006-03-30,3.0,0.0,Al-Aqsa Martyrs Brigade
Beit Shean,32.496086,35.498352,2006-04-02,0.0,0.0,Unknown
Baghdad,33.303566,44.371773,2006-04-03,1.0,5.0,Unknown
Baghdad,33.303566,44.371773,2006-04-07,90.0,,Al-Qaida in Iraq
Ordu,40.986166,37.879721,2006-04-07,1.0,3.0,Unknown
Herat,34.346722,62.197315,2006-04-08,3.0,9.0,Taliban
Karachi,24.891115,67.143311,2006-04-11,57.0,125.0,Lashkar-e-Jhangvi
Huwaider,33.771944,44.621667,2006-04-12,32.0,70.0,Unknown
Tal Afar,36.376823,42.448875,2006-04-12,3.0,7.0,Unknown
Tel Aviv,32.08297,34.811886,2006-04-17,11.0,66.0,Palestinian Islamic Jihad (PIJ)
Hawz Madad,31.558611,65.329167,2006-04-20,1.0,4.0,Taliban
Colombo,6.941837,79.861687,2006-04-25,11.0,5.0,Liberation Tigers of Tamil Eelam (LTTE)
Kabul,34.516895,69.147011,2006-05-02,2.0,1.0,Taliban
Fallujah,33.349159,43.784199,2006-05-03,16.0,30.0,Unknown
Baghdad,33.303566,44.371773,2006-05-04,10.0,50.0,Unknown
Tikrit,34.621521,43.668377,2006-05-06,4.0,0.0,Unknown
Karbala,32.604393,44.007145,2006-05-07,6.0,19.0,Unknown
Tal Afar,36.376823,42.448875,2006-05-09,18.0,35.0,Unknown
Baghdad,33.303566,44.371773,2006-05-14,16.0,6.0,Unknown
Baghdad,33.303566,44.371773,2006-05-14,14.0,,Unknown
Shurandam,31.583227,65.810333,2006-05-17,1.0,1.0,Unknown
Nazran,43.2267,44.770569,2006-05-17,7.0,,Unknown
Ghazni,33.542622,68.415329,2006-05-18,2.0,1.0,Taliban
Herat,34.346722,62.197315,2006-05-18,2.0,1.0,Unknown
Kabul,34.516895,69.147011,2006-05-21,2.0,6.0,Unknown
Baghdad,33.303566,44.371773,2006-05-21,13.0,18.0,Unknown
Baghdad,33.303566,44.371773,2006-05-22,,,Unknown
Hyderpora,34.042171,74.786728,2006-05-23,2.0,26.0,Hizbul Mujahideen (HM)
Datta Khel,32.901089,69.749405,2006-05-28,3.0,3.0,Unknown
Baghdad,33.303566,44.371773,2006-05-29,3.0,5.0,Unknown
Hillah,32.469238,44.416637,2006-05-30,12.0,30.0,Unknown
Farah,32.37001,62.128456,2006-06-01,1.0,0.0,Taliban
Kandahar,31.617667,65.675942,2006-06-02,3.0,0.0,Taliban
Kandahar,31.617667,65.675942,2006-06-04,4.0,12.0,Taliban
Basra,30.510054,47.778095,2006-06-24,5.0,0.0,Unknown
Colombo,6.941837,79.861687,2006-06-27,4.0,6.0,Liberation Tigers of Tamil Eelam (LTTE)
Kunduz,36.705776,68.87706,2006-06-28,2.0,0.0,Unknown
Baghdad,33.303566,44.371773,2006-07-01,77.0,96.0,Sunni Supporters
Kandahar,31.617667,65.675942,2006-07-03,2.0,7.0,Taliban
Baghdad,33.303566,44.371773,2006-07-03,1.0,5.0,Unknown
Mosul,36.354145,43.14357,2006-07-05,3.0,4.0,Unknown
Barkan,32.110182,35.105986,2006-07-05,0.0,0.0,Unknown
Kufa,32.032916,44.399648,2006-07-06,14.0,38.0,Unknown
Nazran,43.2267,44.770569,2006-07-07,0.0,0.0,Chechen Rebels
Baghdad,33.303566,44.371773,2006-07-11,1.0,0.0,Unknown
Waish,30.974178,66.437027,2006-07-12,2.0,10.0,Unknown
Unknown,33.358508,69.859741,2006-07-12,2.0,10.0,Unknown
Maydani,33.446944,70.228333,2006-07-14,1.0,1.0,Unknown
Karachi,24.891115,67.143311,2006-07-15,4.0,0.0,Unknown
Tuz Khormato,34.881348,44.62513,2006-07-16,26.0,22.0,Unknown
Gardez,33.598633,69.228996,2006-07-16,5.0,22.0,Taliban
Lashkar Gah,31.60063,64.369652,2006-07-17,3.0,9.0,Taliban
Kufa,32.032916,44.399648,2006-07-18,59.0,132.0,Mujahedeen Shura Council
Fallujah,33.349159,43.784199,2006-07-21,6.0,13.0,Unknown
Samarra,34.208416,43.890713,2006-07-21,1.0,1.0,Unknown
Baghdad,33.303566,44.371773,2006-07-23,34.0,73.0,Unknown
Baghdad,33.303566,44.371773,2006-08-01,15.0,37.0,Unknown
Baghdad,33.303566,44.371773,2006-08-01,1.0,0.0,Unknown
Baghdad,33.303566,44.371773,2006-08-01,3.0,7.0,Unknown
Panjwai,31.550039,65.45263,2006-08-03,22.0,13.0,Unknown
Hadar,35.569427,42.723026,2006-08-04,10.0,12.0,Unknown
Qadisiyah,34.458889,43.791004,2006-08-06,15.0,30.0,Unknown
Najaf,32.000596,44.330818,2006-08-10,35.0,122.0,Unknown
Barmal district,32.715785,69.281793,2006-08-14,1.0,7.0,Unknown
Mosul,36.354145,43.14357,2006-08-15,9.0,36.0,Unknown
Batticaloa,7.690264,81.656379,2006-08-25,7.0,4.0,Colonel Karuna Faction
Baghdad,33.303566,44.371773,2006-08-27,2.0,20.0,Unknown
Lashkar Gah,31.60063,64.369652,2006-08-28,17.0,50.0,Unknown
Baghdad,33.303566,44.371773,2006-08-28,13.0,42.0,Unknown
Hillah,32.469238,44.416637,2006-08-30,12.0,38.0,Unknown
Qalat,32.100204,66.901016,2006-08-31,1.0,3.0,Taliban
Jalalabad,34.417122,70.449593,2006-09-02,1.0,3.0,Taliban
Khost,33.335258,69.928467,2006-09-06,3.0,2.0,Taliban
Baghdad,33.303566,44.371773,2006-09-07,11.0,18.0,Unknown
Baghdad,33.303566,44.371773,2006-09-07,9.0,30.0,Unknown
Kabul,34.516895,69.147011,2006-09-08,17.0,29.0,Taliban
Unknown,33.706162,69.383143,2006-09-10,3.0,,Haqqani Network
Baghdad,33.303566,44.371773,2006-09-11,14.0,3.0,Unknown
Tani,33.241286,69.830128,2006-09-11,8.0,40.0,Haqqani Network
Unknown,,,2006-09-15,5.0,0.0,Unknown
Baghdad,33.303566,44.371773,2006-09-16,2.0,22.0,Unknown
Baidoa,3.115641,43.64658,2006-09-18,11.0,18.0,Al-Qaida
Kabul,34.516895,69.147011,2006-09-18,4.0,,Unknown
Herat,34.346722,62.197315,2006-09-18,11.0,20.0,Unknown
Baghdad,33.303566,44.371773,2006-09-20,4.0,13.0,Unknown
Tal Afar,36.376823,42.448875,2006-09-24,3.0,2.0,Unknown
Jurf al-Sakhr,32.867008,44.220455,2006-09-26,3.0,12.0,Unknown
Kabul,34.516895,69.147011,2006-09-30,13.0,50.0,Taliban
Baghdad,33.303566,44.371773,2006-10-03,3.0,19.0,Unknown
Srinagar,34.08374,74.789902,2006-10-04,10.0,22.0,Al-Mansoorian
Baghdad,33.303566,44.371773,2006-10-04,1.0,4.0,Unknown
Khost,33.335258,69.928467,2006-10-06,3.0,19.0,Unknown
Gardez,33.598633,69.228996,2006-10-06,1.0,1.0,Unknown
Tal Afar,36.376823,42.448875,2006-10-09,3.0,12.0,Unknown
Unknown,,,2006-10-14,3.0,6.0,Unknown
Kirkuk,35.45211,44.375465,2006-10-15,3.0,25.0,Unknown
Trincomalee,8.577826,81.218719,2006-10-16,103.0,150.0,Liberation Tigers of Tamil Eelam (LTTE)
Kabul,34.516895,69.147011,2006-10-16,3.0,3.0,Unknown
Baghdad,33.303566,44.371773,2006-10-16,11.0,9.0,Unknown
Tangalle,6.022103,80.799766,2006-10-18,16.0,14.0,Liberation Tigers of Tamil Eelam (LTTE)
Mardi Kahyl,33.314167,69.901389,2006-10-19,2.0,5.0,Unknown
Mosul,36.354145,43.14357,2006-10-19,12.0,25.0,Unknown
Kirkuk,35.45211,44.375465,2006-10-19,12.0,68.0,Unknown
Baghdad,33.303566,44.371773,2006-10-21,4.0,15.0,Unknown
Baghdad,33.303566,44.371773,2006-10-22,1.0,4.0,Unknown
Baqubah,33.74324,44.623825,2006-10-25,2.0,1.0,Unknown
Kirkuk,35.45211,44.375465,2006-10-30,3.0,13.0,Unknown
Baghdad,33.303566,44.371773,2006-10-31,16.0,19.0,Unknown
Andar district,33.319571,68.451297,2006-10-31,2.0,1.0,Taliban
Baghdad,33.3,44.4,2006-11-01,23.0,19.0,Unknown
Quetta,30.200819,66.994354,2006-11-02,3.0,5.0,Unknown
Baghdad,33.303566,44.371773,2006-11-07,21.0,25.0,Unknown
Unknown,33.358508,69.859741,2006-11-07,1.0,3.0,Unknown
Baghdad,33.303566,44.371773,2006-11-09,9.0,27.0,Unknown
Baghdad,33.303566,44.371773,2006-11-12,35.0,56.0,Unknown
Baghdad,33.401699,44.357658,2006-11-13,11.0,18.0,Unknown
Golbahar,35.133333,69.301389,2006-11-15,1.0,1.0,Unknown
Baghdad,33.303566,44.371773,2006-11-15,3.0,12.0,Unknown
Pishta Khara,33.963562,71.510635,2006-11-17,1.0,2.0,Unknown
Khost,33.335258,69.928467,2006-11-18,1.0,0.0,Unknown
Hillah,32.469238,44.416637,2006-11-19,22.0,44.0,Unknown
Baghdad,33.303566,44.371773,2006-11-23,205.0,257.0,Unknown
Tal Afar,36.376823,42.448875,2006-11-24,23.0,43.0,Unknown
Urgun,32.861513,69.126826,2006-11-26,16.0,25.0,Taliban
Unknown,,,2006-11-28,1.0,3.0,Jund al-Sham for Tawhid and Jihad
Unknown,35.251243,44.318079,2006-11-28,2.0,18.0,Unknown
Colombo,6.941837,79.861687,2006-12-01,7.0,8.0,Liberation Tigers of Tamil Eelam (LTTE)
Baidoa,3.115641,43.64658,2006-12-02,1.0,,Unknown
Kandahar,31.617667,65.675942,2006-12-03,3.0,18.0,Unknown
Laylan,35.314948,44.510157,2006-12-03,2.0,0.0,Unknown
Colombo,6.941837,79.861687,2006-12-03,3.0,14.0,Liberation Tigers of Tamil Eelam (LTTE)
Jalula,34.271034,45.163567,2006-12-05,13.0,55.0,Unknown
Kandahar,31.631083,65.742226,2006-12-06,8.0,,Taliban
Baghdad,33.303566,44.371773,2006-12-12,61.0,148.0,Unknown
Lashkar Gah,31.60063,64.369652,2006-12-12,7.0,8.0,Taliban
Baghdad,33.303566,44.371773,2006-12-12,46.0,148.0,Unknown
Baghdad,33.303566,44.371773,2006-12-20,11.0,17.0,Unknown
Baghdad,33.303566,44.371773,2006-12-20,11.0,22.0,Unknown
Baghdad,33.303566,44.371773,2006-12-21,13.0,12.0,Unknown
Kabul,34.516895,69.147011,2006-12-22,1.0,7.0,Haqqani Network
Muqdadiyah,33.953167,44.921906,2006-12-24,7.0,30.0,Unknown
Ramadi,33.420948,43.295662,2006-12-26,4.0,0.0,Unknown
Baghdad,33.303566,44.371773,2006-12-26,4.0,19.0,Unknown
Baghdad,33.303566,44.371773,2006-12-29,10.0,25.0,Unknown
Khalis,33.848618,44.522125,2006-12-29,10.0,11.0,Unknown
Khalis,33.848618,44.522125,2006-12-30,10.0,,Unknown
Meetiyagoda,6.189834,80.095394,2007-01-06,12.0,47.0,Liberation Tigers of Tamil Eelam (LTTE)
Tal Afar,36.376823,42.448875,2007-01-10,5.0,10.0,Unknown
Tal Afar,36.376823,42.448875,2007-01-10,1.0,1.0,Unknown
Mohammad Agha district,34.264029,69.161093,2007-01-12,1.0,3.0,Unknown
Qalat,32.100204,66.901016,2007-01-14,1.0,1.0,Unknown
Mosul,36.354145,43.14357,2007-01-15,8.0,40.0,Unknown
Baghdad,33.303566,44.371773,2007-01-16,65.0,123.0,Unknown
Kirkuk,35.45211,44.375465,2007-01-17,4.0,30.0,Unknown
Guwahati,26.149794,91.763931,2007-01-17,2.0,26.0,United Liberation Front of Assam (ULFA)
Baghdad,33.303566,44.371773,2007-01-18,5.0,10.0,Unknown
Mosul,36.354145,43.14357,2007-01-21,1.0,6.0,Unknown
Point Pedro,9.82486,80.236347,2007-01-21,2.0,1.0,Liberation Tigers of Tamil Eelam (LTTE)
Khost,33.366213,69.962798,2007-01-23,10.0,14.0,Unknown
Baghdad,33.303566,44.371773,2007-01-24,5.0,0.0,Unknown
Baghdad,33.303566,44.371773,2007-01-25,26.0,54.0,Unknown
Islamabad,33.671638,73.056068,2007-01-26,2.0,3.0,Unknown
Mosul,36.354145,43.14357,2007-01-26,2.0,3.0,Unknown
Lashkar Gah,31.60063,64.369652,2007-01-26,1.0,1.0,Taliban
Peshawar,34.006004,71.53743,2007-01-27,15.0,,Unknown
Eilat,29.554548,34.947533,2007-01-29,4.0,0.0,Palestinian Islamic Jihad (PIJ)
Dera Ismail Khan,31.834328,70.90905,2007-01-29,3.0,7.0,Unknown
Dura Mandali,33.744999,45.545616,2007-01-30,24.0,,Unknown
Muqdadiyah,33.953167,44.921906,2007-01-31,1.0,9.0,Unknown
Hillah,32.469238,44.416637,2007-02-01,57.0,150.0,Unknown
dera ismail khan,31.834328,70.90905,2007-02-03,2.0,6.0,Unknown
Kirkuk,35.45211,44.375465,2007-02-03,2.0,17.0,Unknown
Amriyat al-Fallujah,33.163559,43.863106,2007-02-03,1.0,8.0,Unknown
Mosul,36.354145,43.14357,2007-02-03,1.0,,Unknown
Kandahar,31.631083,65.742226,2007-02-04,1.0,0.0,Unknown
Dowr,34.458889,43.791004,2007-02-11,15.0,25.0,Unknown
Tikrit,34.621521,43.668377,2007-02-12,9.0,,Unknown
Ramadi,33.420948,43.295662,2007-02-15,15.0,25.0,Unknown
Quetta,30.200819,66.994354,2007-02-17,16.0,35.0,Unknown
Kirkuk,35.45211,44.375465,2007-02-17,13.0,65.0,Unknown
Baghdad,33.303566,44.371773,2007-02-18,2.0,10.0,Unknown
Duluiyah,34.057114,44.218292,2007-02-19,6.0,15.0,Unknown
Baghdad,33.303566,44.371773,2007-02-20,3.0,17.0,Unknown
Khost,33.335258,69.928467,2007-02-20,1.0,3.0,Unknown
Baghdad,33.303566,44.371773,2007-02-20,8.0,20.0,Unknown
Baghdad,33.303566,44.371773,2007-02-20,6.0,20.0,Unknown
Khost,33.335258,69.928467,2007-02-20,1.0,3.0,Unknown
Najaf,32.000596,44.330818,2007-02-21,9.0,43.0,Unknown
Mosul,36.354145,43.14357,2007-02-21,1.0,7.0,Unknown
Baghdad,33.303566,44.371773,2007-02-24,4.0,7.0,Unknown
Baghdad,33.303566,44.371773,2007-02-26,41.0,,Unknown
Khost,33.335258,69.928467,2007-02-26,2.0,7.0,Unknown
Bagram Air Field,34.944168,69.273331,2007-02-27,24.0,27.0,Taliban
Baghdad,33.303566,44.371773,2007-02-27,1.0,3.0,Unknown
Mosul,36.354145,43.14357,2007-02-27,8.0,28.0,Unknown
Mosul,36.354145,43.14357,2007-02-27,5.0,4.0,Unknown
Kandahar,31.631083,65.742226,2007-02-27,1.0,3.0,Unknown
Baghdad,33.303566,44.371773,2007-02-28,1.0,2.0,Unknown
Ramadi,33.420948,43.295662,2007-03-03,13.0,20.0,Unknown
Mar Koh,34.252304,70.802422,2007-03-04,11.0,34.0,Unknown
Baghdad,33.303566,44.371773,2007-03-05,31.0,65.0,Unknown
Hillah,32.469238,44.416637,2007-03-06,92.0,200.0,Islamic State of Iraq (ISI)
Balad Ruz,33.693947,45.067425,2007-03-07,31.0,25.0,Unknown
Baghdad,33.303566,44.371773,2007-03-07,10.0,23.0,Unknown
Baghdad,33.303566,44.371773,2007-03-10,29.0,40.0,Unknown
Baghdad,33.303566,44.371773,2007-03-11,31.0,39.0,Unknown
Baghdad,33.303566,44.371773,2007-03-11,11.0,8.0,Unknown
Baghdad,33.303566,44.371773,2007-03-11,29.0,33.0,Unknown
Baghdad,33.303566,44.371773,2007-03-11,32.0,24.0,Unknown
Casablanca,33.533333,-7.583333,2007-03-11,1.0,0.0,Unknown
Casablanca,33.59,-7.61,2007-03-12,1.0,4.0,Unknown
Sonari,27.022515,95.020846,2007-03-14,1.0,4.0,United Liberation Front of Assam (ULFA)
Tuz Khormato,34.881348,44.62513,2007-03-14,8.0,25.0,Unknown
Ramadi,33.420948,43.295662,2007-03-16,2.0,2.0,Al-Qaida in Iraq
Amriyat al-Fallujah,33.163559,43.863106,2007-03-16,2.0,100.0,Al-Qaida in Iraq
Albu Issa,33.520717,44.024424,2007-03-16,1.0,250.0,Al-Qaida in Iraq
Jaffna,9.666399,80.020477,2007-03-16,1.0,0.0,Liberation Tigers of Tamil Eelam (LTTE)
Baghdad,33.303566,44.371773,2007-03-19,5.0,25.0,Unknown
Kabul,34.516895,69.147011,2007-03-19,1.0,3.0,Unknown
Mosul,36.354145,43.14357,2007-03-21,8.0,21.0,Unknown
Baghdad,33.303566,44.371773,2007-03-23,8.0,18.0,Al-Qaida in Iraq
Baghdad,33.303566,44.371773,2007-03-24,2.0,8.0,Unknown
Baghdad,33.303566,44.371773,2007-03-24,20.0,26.0,Unknown
Tal Afar,36.376823,42.448875,2007-03-24,10.0,,Unknown
Haswah,32.88018,44.386963,2007-03-24,5.0,30.0,Unknown
Lashkar Gah,31.60063,64.369652,2007-03-27,5.0,,Unknown
Baghdad,33.303566,44.371773,2007-03-27,3.0,5.0,Unknown
Tal Afar,36.376823,42.448875,2007-03-27,1.0,4.0,Sunni Muslim extremists
Ramadi,33.420948,43.295662,2007-03-27,10.0,,Unknown
Mahawil,32.654751,44.408989,2007-03-28,2.0,20.0,Unknown
Kabul,34.516895,69.147011,2007-03-28,4.0,12.0,Unknown
Ramadi,33.420948,43.295662,2007-03-28,17.0,32.0,Unknown
Baghdad,33.303566,44.371773,2007-03-30,72.0,130.0,Unknown
Khalis,33.848618,44.522125,2007-03-30,53.0,103.0,Unknown
Tal Afar,36.376823,42.448875,2007-03-27,153.0,347.0,Unknown
Unknown,34.689769,70.14558,2007-04-01,9.0,6.0,Taliban
Kirkuk,35.45211,44.375465,2007-04-03,12.0,178.0,Unknown
Ramadi,33.420948,43.295662,2007-04-06,20.0,30.0,Unknown
Kabul,34.516895,69.147011,2007-04-06,4.0,4.0,Taliban
Muqdadiyah,33.953167,44.921906,2007-04-10,16.0,33.0,Unknown
Casablanca,33.59,-7.61,2007-04-10,5.0,0.0,Unknown
Algiers,36.763763,3.055413,2007-04-11,30.0,160.0,Al-Qaida in the Islamic Maghreb (AQIM)
Casablanca,33.59,-7.61,2007-04-11,3.0,21.0,Unknown
Baghdad,33.303566,44.371773,2007-04-12,8.0,20.0,Al-Qaida in Iraq
Baghdad,33.303566,44.371773,2007-04-12,11.0,26.0,Unknown
Baghdad,33.303566,44.371773,2007-04-13,8.0,20.0,Unknown
Casablanca,33.59,-7.61,2007-04-14,2.0,1.0,Al-Qaida in the Islamic Maghreb (AQIM)
Khost,33.335258,69.928467,2007-04-14,9.0,5.0,Taliban
Karbala,32.604393,44.007145,2007-04-14,36.0,168.0,Unknown
Baghdad,33.303566,44.371773,2007-04-14,10.0,15.0,Unknown
Spin Boldak district,30.869041,66.141526,2007-04-15,4.0,2.0,Taliban
Kandahar,31.617667,65.675942,2007-04-15,3.0,2.0,Taliban
Baghdad,33.303566,44.371773,2007-04-15,8.0,11.0,Unknown
Kandahar,31.617667,65.675942,2007-04-15,3.0,1.0,Unknown
Kunduz,36.705776,68.87706,2007-04-16,10.0,25.0,Unknown
Baghdad,33.303566,44.371773,2007-04-18,42.0,76.0,Sunni Muslim extremists
Baghdad,33.303566,44.371773,2007-04-18,5.0,8.0,Unknown
Baghdad,33.303566,44.371773,2007-04-19,13.0,28.0,Unknown
Baghdad,33.303566,44.371773,2007-04-22,15.0,82.0,Unknown
Khost,33.335258,69.928467,2007-04-22,11.0,40.0,Unknown
Baqubah,33.74324,44.623825,2007-04-23,11.0,23.0,Unknown
Baghdad,33.303566,44.371773,2007-04-23,8.0,14.0,Unknown
Tal Asquf,36.376823,42.448875,2007-04-23,11.0,20.0,Unknown
Ramadi,33.420948,43.295662,2007-04-23,20.0,35.0,Unknown
Ramadi,33.420948,43.295662,2007-04-23,1.0,7.0,Unknown
Ramadi,33.420948,43.295662,2007-04-24,14.0,25.0,Unknown
Balad Ruz,33.693947,45.067425,2007-04-25,5.0,16.0,Unknown
Zummar,36.77499,42.645939,2007-04-26,5.0,5.0,Unknown
Hit,33.633896,42.832081,2007-04-28,16.0,35.0,Unknown
Charsadda,34.14658,71.743538,2007-04-28,31.0,50.0,Unknown
Karbala,32.604393,44.007145,2007-04-28,69.0,178.0,Unknown
Khalis,33.848618,44.522125,2007-04-30,33.0,60.0,Unknown
Zahri district,31.640278,65.3975,2007-04-30,2.0,3.0,Unknown
Baghdad,33.303566,44.371773,2007-04-30,6.0,12.0,Unknown
Khalis,33.848618,44.522125,2007-05-01,32.0,64.0,Islamic State of Iraq (ISI)
Baghdad,33.303566,44.371773,2007-05-03,9.0,34.0,Unknown
Kabul,34.516895,69.147011,2007-05-06,3.0,0.0,Taliban
Abu Ghraib,33.31065,44.038208,2007-05-06,14.0,13.0,Unknown
Ramadi district,33.431899,43.311566,2007-05-07,22.0,40.0,Unknown
Arbil,36.192589,44.004623,2007-05-07,19.0,11.0,Al-Qaida Kurdish Battalions (AQKB)
Makhmour,35.768353,43.588966,2007-05-13,30.0,60.0,Unknown
Peshawar,34.006004,71.53743,2007-05-15,25.0,,Taliban (Pakistan)
Kandahar,31.617667,65.675942,2007-05-17,3.0,4.0,Taliban
Al-Hissi,33.278993,43.744882,2007-05-17,9.0,5.0,Unknown
Kunduz,36.705776,68.87706,2007-05-19,8.0,16.0,Taliban
Ramadi,33.420948,43.295662,2007-05-20,3.0,9.0,Unknown
Gardez,33.598633,69.228996,2007-05-20,10.0,30.0,Unknown
Mandali,33.744999,45.545616,2007-05-23,20.0,15.0,Unknown
Kabul,34.516895,69.147011,2007-05-23,2.0,2.0,Unknown
Fallujah,33.349159,43.784199,2007-05-24,12.0,,Unknown
Kandahar,31.631083,65.742226,2007-05-26,1.0,4.0,Unknown
Kunduz,36.705776,68.87706,2007-05-28,3.0,2.0,Taliban
Tank,32.209442,70.383537,2007-05-28,3.0,8.0,Taliban (Pakistan)
Fallujah,33.349159,43.784199,2007-05-31,26.0,50.0,Unknown
Baqubah,33.74324,44.623825,2007-06-01,3.0,4.0,Al-Qaida in Iraq
Shirqat,35.499439,43.234894,2007-06-01,7.0,11.0,Unknown
Palugashandiya,7.758409,80.187507,2007-06-02,0.0,0.0,Unknown
Mogadishu,2.059819,45.326115,2007-06-03,8.0,6.0,Mujahideen Youth Movement (MYM)
Mogadishu,2.059819,45.326115,2007-06-03,2.0,0.0,Unknown
Baqubah,33.74324,44.623825,2007-06-03,1.0,0.0,Unknown
Qayarah,35.79813,43.294178,2007-06-04,1.0,11.0,Unknown
Amriyat al-Fallujah,33.163559,43.863106,2007-06-05,19.0,15.0,Unknown
Baghdad,33.303566,44.371773,2007-06-05,1.0,3.0,Unknown
Ramadi,33.420948,43.295662,2007-06-06,3.0,6.0,Unknown
Unknown,32.611717,62.520332,2007-06-06,1.0,0.0,Unknown
Rabiaa,36.803982,42.093945,2007-06-07,5.0,11.0,Unknown
Abu Ghraib,33.31065,44.038208,2007-06-07,3.0,4.0,Unknown
Ramadi,33.420948,43.295662,2007-06-07,5.0,4.0,Unknown
Rabiaa,36.803982,42.093945,2007-06-07,5.0,11.0,Unknown
Dakok,35.46979,44.396337,2007-06-08,11.0,10.0,Unknown
Qurnah,31.015833,47.430556,2007-06-08,9.0,15.0,Unknown
Alexandria,32.874886,44.281016,2007-06-09,15.0,30.0,Al-Qaida in Iraq
Baqubah,33.74324,44.623825,2007-06-09,3.0,0.0,Unknown
Tikrit,34.621521,43.668377,2007-06-10,16.0,50.0,Unknown
Baghdad,33.303566,44.371773,2007-06-10,2.0,5.0,Unknown
Baghdad,33.303566,44.371773,2007-06-10,2.0,3.0,Unknown
Baqubah,33.74324,44.623825,2007-06-11,1.0,0.0,Al-Qaida in Iraq
Nairobi,-1.28518,36.821107,2007-06-11,3.0,35.0,Unknown
Gorbaz,33.300747,69.884109,2007-06-11,1.0,11.0,Taliban
Ramadi,33.420948,43.295662,2007-06-12,4.0,15.0,Unknown
Lashkar Gah,31.60063,64.369652,2007-06-12,2.0,2.0,Taliban
Ramadi,33.420948,43.295662,2007-06-13,4.0,11.0,Unknown
Mandali,33.744999,45.545616,2007-06-13,3.0,5.0,Unknown
Riyadh,35.272076,43.915043,2007-06-14,1.0,6.0,Unknown
Gereshk,31.825871,64.576431,2007-06-14,1.0,0.0,Unknown
Kandahar,31.631083,65.742226,2007-06-15,1.0,5.0,Unknown
Mogadishu,2.059819,45.326115,2007-06-15,5.0,9.0,Unknown
Kabul,34.516895,69.147011,2007-06-16,4.0,0.0,Unknown
Kabul,34.516895,69.147011,2007-06-17,36.0,52.0,Haqqani Network
Haswah,32.88018,44.386963,2007-06-17,1.0,6.0,Unknown
Baghdad,33.303566,44.371773,2007-06-19,79.0,200.0,Unknown
Sulayman Beg,34.790665,44.662151,2007-06-21,18.0,66.0,Al-Qaida in Iraq
Khiam,33.327904,35.61126,2007-06-24,6.0,2.0,Unknown
Baghdad,33.303566,44.371773,2007-06-25,14.0,27.0,Unknown
Baiji,34.92485,43.491413,2007-06-25,16.0,50.0,Unknown
Hillah,32.469238,44.416637,2007-06-25,9.0,,Unknown
Hillah,32.469238,44.416637,2007-06-25,9.0,31.0,Unknown
Baghdad,33.303566,44.371773,2007-06-27,2.0,0.0,Unknown
Kabul,34.516895,69.147011,2007-06-28,3.0,8.0,Taliban
Muqdadiyah,33.953167,44.921906,2007-06-30,20.0,22.0,Unknown
Abbotsinch,55.863239,-4.427852,2007-06-30,1.0,2.0,Al-Qaida in Iraq
Unknown,34.246376,68.290897,2007-07-01,1.0,15.0,Unknown
Ramadi,33.420948,43.295662,2007-07-02,1.0,6.0,Unknown
Rashid,34.533753,43.483738,2007-07-02,1.0,0.0,Al-Qaida in Iraq
Unknown,15.434043,45.48023,2007-07-03,9.0,0.0,Al-Qaida in Yemen
Mir Ali,32.975433,70.273735,2007-07-04,11.0,,Unknown
Baghdad,33.303566,44.371773,2007-07-05,18.0,24.0,Unknown
Spin Boldak,31.002735,66.405617,2007-07-05,11.0,11.0,Unknown
Khanaqin district,34.240378,45.136952,2007-07-06,27.0,33.0,Unknown
Amerli,34.726269,44.584908,2007-07-07,150.0,250.0,Unknown
Haswah,33.278425,43.946356,2007-07-08,23.0,27.0,Unknown
Fallujah,33.349159,43.784199,2007-07-10,21.0,50.0,Unknown
Algiers,36.562222,3.594444,2007-07-11,11.0,35.0,Al-Qaida in the Islamic Maghreb (AQIM)
Mingora,34.774479,72.364052,2007-07-12,6.0,0.0,Unknown
Miran Shah,33.006516,70.068253,2007-07-12,3.0,3.0,Unknown
Mosul,36.354145,43.14357,2007-07-12,5.0,5.0,Unknown
Miran Shah,33.006516,70.068253,2007-07-13,3.0,2.0,Unknown
Miran Shah,33.006516,70.068253,2007-07-14,25.0,26.0,Al-Qaida
Swat district,35.079406,72.428758,2007-07-15,13.0,20.0,Unknown
Dera Ismail Khan,31.834328,70.90905,2007-07-15,27.0,60.0,Unknown
Matta,34.931154,72.416695,2007-07-16,16.0,47.0,Unknown
Dera Ismail Khan,31.834328,70.90905,2007-07-16,21.0,35.0,Unknown
Mir Ali,32.975433,70.273735,2007-07-17,1.0,4.0,Unknown
Islamabad,33.671638,73.056068,2007-07-17,17.0,63.0,Unknown
Kirkuk,35.45211,44.375465,2007-07-18,80.0,183.0,Unknown
Islamabad,33.671638,73.056068,2007-07-18,14.0,40.0,Unknown
North Waziristan district,32.874079,70.027089,2007-07-18,3.0,0.0,Unknown
Khost,33.335258,69.928467,2007-07-18,5.0,8.0,Taliban
Faizabad,37.10783,70.567558,2007-07-19,1.0,27.0,Taliban
Hub,25.044537,66.874672,2007-07-20,30.0,,Unknown
North Waziristan district,32.874079,70.027089,2007-07-20,4.0,6.0,Unknown
Kohat,33.590603,71.44062,2007-07-20,19.0,15.0,Unknown
Taji,33.530734,44.274292,2007-07-22,4.0,14.0,Unknown
Ramadi,33.420948,43.295662,2007-07-23,8.0,0.0,Unknown
Ramadi,33.420948,43.295662,2007-07-23,1.0,3.0,Unknown
Hillah,32.469238,44.416637,2007-07-24,33.0,117.0,Unknown
Zakura,34.161699,74.831705,2007-07-26,2.0,6.0,Unknown
Baghdad,33.303566,44.371773,2007-07-27,30.0,75.0,Unknown
Baghdad,33.303566,44.371773,2007-07-27,20.0,60.0,Unknown
Islamabad,33.671638,73.056068,2007-07-27,12.0,43.0,Unknown
Islamabad,33.671638,73.056068,2007-07-27,15.0,64.0,Unknown
Unknown,36.733333,68.866667,2007-07-30,2.0,11.0,Taliban
Baghdad,33.303566,44.371773,2007-08-02,20.0,40.0,Unknown
Habhab,33.784248,44.50972,2007-08-02,13.0,15.0,Unknown
Sargodha,32.082884,72.671445,2007-08-03,2.0,0.0,Unknown
Parachinar,33.897995,70.107536,2007-08-04,8.0,35.0,Taliban (Pakistan)
Tal Afar,36.376823,42.448875,2007-08-07,28.0,19.0,Unknown
Baghdad,33.303566,44.371773,2007-08-14,10.0,6.0,Unknown
Meknes,33.895,-5.554722,2007-08-14,1.0,,Unknown
Qahtaniya,36.202354,41.687168,2007-08-14,250.0,750.0,Al-Qaida in Iraq
Jazeera,36.183247,41.591599,2007-08-14,250.0,750.0,Al-Qaida in Iraq
Tank,32.209442,70.383537,2007-08-17,1.0,5.0,Unknown
Kandahar,31.631083,65.742226,2007-08-17,5.0,0.0,Unknown
Kandahar,31.617667,65.675942,2007-08-18,25.0,20.0,Unknown
Zahri district,31.640278,65.3975,2007-08-18,4.0,0.0,Unknown
Hangu,33.528893,71.056122,2007-08-20,4.0,17.0,Taliban (Pakistan)
Tal Kali,32.935769,70.105122,2007-08-20,6.0,17.0,Unknown
Baiji,34.92485,43.491413,2007-08-22,20.0,40.0,Unknown
Aliser,33.449841,70.064041,2007-08-22,2.0,4.0,Unknown
Muqdadiyah,33.953167,44.921906,2007-08-22,7.0,35.0,Unknown
Miran Shah,33.006516,70.068253,2007-08-24,5.0,30.0,Unknown
Kabul,34.516895,69.147011,2007-08-25,6.0,3.0,Unknown
Fallujah,33.349159,43.784199,2007-08-27,9.0,11.0,Unknown
Barmal,32.715785,69.281793,2007-08-29,6.0,11.0,Unknown
Dashta,34.846589,71.097317,2007-08-30,1.0,0.0,Unknown
Kabul,34.516895,69.147011,2007-08-31,1.0,,Unknown
Rawalpindi,33.594013,73.069077,2007-09-04,18.0,35.0,Al-Qaida
Kunduz,36.705776,68.87706,2007-09-04,3.0,6.0,Taliban
Yahya Khel district,32.936526,68.647303,2007-09-04,2.0,2.0,Unknown
Rawalpindi,33.594013,73.069077,2007-09-04,9.0,35.0,Unknown
Batna,35.55,6.166667,2007-09-06,16.0,74.0,Al-Qaida in the Islamic Maghreb (AQIM)
Baghdad,33.303566,44.371773,2007-09-08,15.0,23.0,Unknown
Dellys,36.919552,3.891396,2007-09-08,30.0,47.0,Al-Qaida in the Islamic Maghreb (AQIM)
Gereshk,31.825871,64.576431,2007-09-10,28.0,60.0,Taliban
Dera Ismail Khan,31.834328,70.90905,2007-09-11,19.0,16.0,Unknown
Tarbela,34.061786,72.694561,2007-09-13,16.0,27.0,Unknown
Baiji,34.92485,43.491413,2007-09-14,11.0,8.0,Unknown
Tuz Khormato,34.881348,44.62513,2007-09-16,6.0,22.0,Unknown
Nad Ali,31.637821,64.237801,2007-09-17,9.0,,Taliban
Garmser,31.127028,64.205849,2007-09-19,3.0,8.0,Unknown
Lakhdaria,36.562222,3.594444,2007-09-21,1.0,9.0,Al-Qaida in the Islamic Maghreb (AQIM)
Tank district,32.214179,70.38468,2007-09-22,1.0,1.0,Unknown
Baqubah,33.74324,44.623825,2007-09-24,20.0,30.0,Al-Qaida in Iraq
Tal Afar,36.376823,42.448875,2007-09-24,7.0,17.0,Unknown
Spin Boldak,31.002735,66.405617,2007-09-25,5.0,5.0,Unknown
Mosul,36.354145,43.14357,2007-09-25,1.0,3.0,Unknown
Basra,30.510054,47.778095,2007-09-25,4.0,20.0,Unknown
Sangin district,32.034643,64.95902,2007-09-26,2.0,3.0,Unknown
Mosul,36.354145,43.14357,2007-09-26,4.0,47.0,Unknown
Sinjar,36.319386,41.861473,2007-09-27,11.0,9.0,Unknown
Unknown,32.268808,68.496303,2007-09-27,10.0,,Taliban
Mosul,36.354145,43.14357,2007-09-29,7.0,17.0,Unknown
Kabul,34.516895,69.147011,2007-09-29,31.0,0.0,Taliban
Bannu,32.987347,70.602524,2007-10-01,15.0,20.0,Unknown
Mosul,36.354145,43.14357,2007-10-01,2.0,6.0,Unknown
Bannu,32.987347,70.602524,2007-10-01,14.0,29.0,Unknown
Kabul,34.516895,69.147011,2007-10-02,14.0,0.0,Taliban
Khalis,33.848618,44.522125,2007-10-02,9.0,10.0,Unknown
Kabul,34.516895,69.147011,2007-10-02,2.0,,Unknown
Tal Afar,36.376823,42.448875,2007-10-04,4.0,57.0,Unknown
Sangin district,32.073333,64.833889,2007-10-05,3.0,0.0,Unknown
Kirkuk,35.45211,44.375465,2007-10-06,1.0,5.0,Unknown
Dilja,34.369167,43.764167,2007-10-08,11.0,14.0,Unknown
Alam,34.666469,43.700442,2007-10-08,2.0,4.0,Unknown
Baiji,34.92485,43.491413,2007-10-09,8.0,19.0,Unknown
Baiji,34.92485,43.491413,2007-10-09,16.0,7.0,Unknown
Mosul,36.354145,43.14357,2007-10-10,3.0,19.0,Unknown
Baghdad,33.303566,44.371773,2007-10-11,9.0,25.0,Unknown
Kirkuk,35.45211,44.375465,2007-10-11,8.0,50.0,Unknown
Mosul,36.354145,43.14357,2007-10-11,1.0,8.0,Unknown
Spin Boldak district,30.869041,66.141526,2007-10-13,5.0,29.0,Unknown
Al-Baghdadi,33.864799,42.536385,2007-10-14,5.0,8.0,Unknown
Baghdad,33.303566,44.371773,2007-10-15,7.0,25.0,Unknown
Yathrib,33.994591,44.357273,2007-10-15,7.0,0.0,Unknown
Mosul,36.354145,43.14357,2007-10-16,5.0,30.0,Unknown
Karachi,24.891115,67.143311,2007-10-18,141.0,250.0,Harkatul Jihad-e-Islami
Saqlawiah,33.397812,43.706276,2007-10-20,2.0,4.0,Unknown
Saliyapura,8.391309,80.44795,2007-10-22,33.0,,Liberation Tigers of Tamil Eelam (LTTE)
Khasavyurt,43.390031,46.616657,2007-10-23,1.0,5.0,Unknown
Khost,33.335258,69.928467,2007-10-24,1.0,9.0,Taliban
Mingora,34.774479,72.364052,2007-10-25,21.0,34.0,Unknown
Muqdadiyah,33.953167,44.921906,2007-10-26,2.0,4.0,Unknown
Kirkuk,35.45211,44.375465,2007-10-28,7.0,21.0,Unknown
Baqubah,33.74324,44.623825,2007-10-29,29.0,21.0,Unknown
Siniyah,34.206111,44.006667,2007-10-29,4.0,14.0,Unknown
Lashkar Gah,31.60063,64.369652,2007-10-29,4.0,5.0,Unknown
Sargodha,32.082884,72.671445,2007-11-01,11.0,28.0,Unknown
Rutba,33.036022,40.288158,2007-11-02,3.0,0.0,Unknown
Mosul,36.354145,43.14357,2007-11-04,2.0,17.0,Unknown
Baghlan,36.177311,68.752136,2007-11-06,64.0,95.0,Unknown
Ghalibiyah,33.737099,44.490696,2007-11-06,1.0,0.0,Al-Qaida in Iraq
Tuusula,60.40393,25.026451,2007-11-07,9.0,13.0,Neo-Fascists
Kirkuk,35.45211,44.375465,2007-11-07,1.0,10.0,Unknown
Mosul,36.354145,43.14357,2007-11-08,1.0,5.0,Unknown
Peshawar,34.006004,71.53743,2007-11-09,4.0,5.0,Unknown
Dojamah,33.977519,44.413457,2007-11-10,5.0,,Unknown
Mueilha,32.468191,44.550194,2007-11-14,2.0,10.0,Unknown
Mueilha,32.468191,44.550194,2007-11-14,4.0,8.0,Unknown
Baqubah,33.74324,44.623825,2007-11-18,7.0,7.0,Al-Qaida in Iraq
Zaranj,30.959932,61.86895,2007-11-19,8.0,14.0,Taliban
Ramadi,33.420948,43.295662,2007-11-21,5.0,6.0,Unknown
Mosul,36.354145,43.14357,2007-11-23,13.0,21.0,Unknown
Mosul,36.354145,43.14357,2007-11-23,13.0,21.0,Unknown
Rawalpindi,33.594013,73.069077,2007-11-24,18.0,,Unknown
Rawalpindi,33.594013,73.069077,2007-11-24,18.0,,Unknown
Paghman,34.591139,68.95694,2007-11-24,9.0,12.0,Taliban
Unknown,33.358508,69.859741,2007-11-24,1.0,0.0,Unknown
Baqubah,33.74324,44.623825,2007-11-27,8.0,13.0,Unknown
Baqubah,33.74324,44.623825,2007-11-27,3.0,6.0,Unknown
Asha,54.989093,57.273388,2007-11-27,1.0,0.0,Unknown
Kabul,,,2007-11-27,2.0,4.0,Taliban
Colombo,6.941837,79.861687,2007-11-28,2.0,2.0,Liberation Tigers of Tamil Eelam (LTTE)
Karbala,32.604393,44.007145,2007-11-15,0.0,0.0,Unknown
Madain,33.100529,44.584492,2007-12-01,2.0,4.0,Unknown
Baqubah,33.74324,44.623825,2007-12-02,1.0,14.0,Unknown
Ghorghory,31.43869,62.58033,2007-12-03,4.0,10.0,Taliban
Kabul,34.516895,69.147011,2007-12-04,1.0,22.0,Taliban
Peshawar,34.006004,71.53743,2007-12-04,1.0,0.0,Unknown
Kabul,34.516895,69.147011,2007-12-05,13.0,20.0,Taliban
Muqdadiyah,33.953167,44.921906,2007-12-07,15.0,25.0,Unknown
Baiji,34.92485,43.491413,2007-12-08,7.0,15.0,Unknown
Mingora,34.774479,72.364052,2007-12-09,10.0,1.0,Unknown
Mingora,34.774479,72.364052,2007-12-09,12.0,0.0,Unknown
Kamra,33.855442,72.394668,2007-12-10,1.0,7.0,Unknown
Ningolai,34.841276,72.414525,2007-12-10,10.0,,Unknown
Kamra,33.855442,72.394668,2007-12-10,1.0,7.0,Unknown
Baghdad,33.303566,44.371773,2007-12-11,3.0,12.0,Unknown
Panjwai,31.550039,65.45263,2007-12-11,2.0,0.0,Taliban
Baghdad,33.303566,44.371773,2007-12-11,2.0,12.0,Unknown
Kandahar,31.617667,65.675942,2007-12-12,2.0,6.0,Taliban
Quetta,30.200819,66.994354,2007-12-13,7.0,22.0,Unknown
Nowshera,34.007206,71.983078,2007-12-15,6.0,,Unknown
Kabul,34.516895,69.147011,2007-12-15,5.0,0.0,Taliban
Nowshera,34.007206,71.983078,2007-12-15,5.0,,Unknown
Kohat,33.590603,71.44062,2007-12-17,10.0,4.0,Unknown
Charsadda,34.14658,71.743538,2007-12-21,72.0,101.0,Unknown
Mingora,34.774479,72.364052,2007-12-23,14.0,26.0,Tehrik-i-Taliban Pakistan (TTP)
Baqubah,33.74324,44.623825,2007-12-25,5.0,20.0,Unknown
Baiji,34.92485,43.491413,2007-12-25,20.0,80.0,Unknown
Rawalpindi,33.594013,73.069077,2007-12-27,20.0,100.0,Al-Qaida
Baghdad,33.303566,44.371773,2008-01-01,37.0,30.0,Unknown
Unknown,33.333847,69.937167,2008-01-01,1.0,0.0,Unknown
Baqubah,33.74324,44.623825,2008-01-02,8.0,22.0,Al-Qaida in Iraq
Naciria,36.745632,3.830243,2008-01-02,5.0,20.0,Al-Qaida in the Islamic Maghreb (AQIM)
Khash Rod district,31.622827,62.869366,2008-01-03,9.0,13.0,Taliban
Baghdad,33.303566,44.371773,2008-01-06,6.0,4.0,Unknown
Baghdad,33.303566,44.371773,2008-01-07,11.0,16.0,Unknown
Spin Boldak,31.002735,66.405617,2008-01-07,2.0,4.0,Unknown
Kabal,34.79216,72.284279,2008-01-07,1.0,8.0,Unknown
Kabal,34.79216,72.284279,2008-01-07,1.0,3.0,Unknown
Madain,33.100529,44.584492,2008-01-08,2.0,3.0,Unknown
Lahore,31.50547,74.34288,2008-01-10,24.0,,Unknown
Lashkar Gah,31.60063,64.369652,2008-01-13,2.0,8.0,Unknown
Kabul,34.516895,69.147011,2008-01-14,7.0,,Haqqani Network
Kabul,34.516895,69.147011,2008-01-16,7.0,,Taliban
Sulayman Beg,34.790665,44.662151,2008-01-16,1.0,3.0,Unknown
Khan Bani Saad,33.571807,44.536067,2008-01-16,9.0,10.0,Unknown
Baqubah,33.74324,44.623825,2008-01-17,9.0,15.0,Unknown
Peshawar,34.006004,71.53743,2008-01-17,9.0,20.0,Unknown
Ramadi,33.420948,43.295662,2008-01-19,8.0,13.0,Unknown
Fallujah,33.349159,43.784199,2008-01-20,7.0,4.0,Unknown
Baiji,34.92485,43.491413,2008-01-21,18.0,12.0,Unknown
Mosul,36.354145,43.14357,2008-01-21,3.0,9.0,Unknown
Baqubah,33.74324,44.623825,2008-01-22,2.0,21.0,Unknown
Khost,33.335258,69.928467,2008-01-22,1.0,3.0,Unknown
Kirkuk,35.45211,44.375465,2008-01-23,5.0,11.0,Unknown
Wazir Dand district,33.492778,70.449722,2008-01-23,2.0,1.0,Unknown
Unknown,33.358508,69.859741,2008-01-23,1.0,2.0,Unknown
Mosul,36.354145,43.14357,2008-01-24,4.0,2.0,Unknown
Unknown,,,2008-01-25,3.0,3.0,Unknown
Musa Qala District,32.323203,64.811084,2008-01-26,1.0,2.0,Unknown
Thenia,36.727778,3.553889,2008-01-28,5.0,20.0,Unknown
Mosul,36.354145,43.14357,2008-01-29,2.0,15.0,Unknown
Zahri district,31.640278,65.3975,2008-01-30,1.0,4.0,Unknown
Unknown,31.363647,63.958611,2008-01-30,7.0,18.0,Taliban
Thiraa Dijla,33.530734,44.274292,2008-01-30,2.0,3.0,Unknown
Fallujah,33.349159,43.784199,2008-01-30,2.0,9.0,Unknown
Jaffna,9.666399,80.020477,2008-01-31,4.0,13.0,Liberation Tigers of Tamil Eelam (LTTE)
Kabul,34.516895,69.147011,2008-01-31,2.0,4.0,Taliban
Baghdad,33.303566,44.371773,2008-02-01,90.0,130.0,Al-Qaida in Iraq
North Waziristan District,32.926684,69.920086,2008-02-01,7.0,15.0,Al-Qaida
Ambepussa,7.256096,80.169284,2008-02-03,8.0,100.0,Liberation Tigers of Tamil Eelam (LTTE)
Dimona,31.070501,35.030529,2008-02-04,3.0,11.0,Hamas (Islamic Resistance Movement)
Rawalpindi,33.594013,73.069077,2008-02-04,9.0,25.0,Unknown
Ghazni,33.542622,68.415329,2008-02-08,3.0,5.0,Taliban
Charsadda,34.14658,71.743538,2008-02-09,18.0,25.0,Unknown
Balad,34.010471,44.148235,2008-02-10,23.0,40.0,Unknown
Mir Ali,32.975433,70.273735,2008-02-12,11.0,13.0,Unknown
Tal Afar,36.376823,42.448875,2008-02-15,6.0,16.0,Unknown
Mexico City,19.371887,-99.086624,2008-02-15,2.0,2.0,Unknown
Mingora,34.774479,72.364052,2008-02-16,2.0,34.0,Unknown
Parachinar,33.897995,70.107536,2008-02-16,38.0,93.0,Unknown
Baghdad,33.303566,44.371773,2008-02-17,3.0,8.0,Unknown
Kandahar,31.631083,65.742226,2008-02-17,101.0,100.0,Taliban
Spin Boldak,31.002735,66.405617,2008-02-18,39.0,41.0,Taliban
Muqdadiyah,33.953167,44.921906,2008-02-20,12.0,18.0,Unknown
Amiriyah,33.163559,43.863106,2008-02-22,5.0,4.0,Unknown
Iskandariyah,32.887157,44.341637,2008-02-24,64.0,68.0,Unknown
Kalawanchikudi,7.529373,81.794609,2008-02-24,3.0,0.0,Unknown
Rawalpindi,33.594013,73.069077,2008-02-25,9.0,20.0,Unknown
Samarra,34.208416,43.890713,2008-02-25,2.0,0.0,Unknown
Mosul,36.354145,43.14357,2008-02-26,9.0,8.0,Unknown
General Santos,6.11622,125.169395,2008-02-28,1.0,6.0,Unknown
Khar,34.733517,71.519661,2008-03-01,2.0,21.0,Tehrik-i-Taliban Pakistan (TTP)
Darra Adam Khel,33.68745,71.516037,2008-03-02,43.0,,Unknown
Saberi district,33.541338,69.920167,2008-03-03,3.0,4.0,Haqqani Network
Lahore,31.50547,74.34288,2008-03-04,6.0,14.0,Unknown
Tani district,33.242222,69.828056,2008-03-04,2.0,4.0,Unknown
Xian,34.264987,108.944269,2008-03-05,1.0,0.0,Unknown
Samarra,34.208416,43.890713,2008-03-05,3.0,4.0,Unknown
Baghdad,33.303566,44.371773,2008-03-06,56.0,130.0,Al-Qaida in Iraq
Jerusalem,31.771599,35.2034,2008-03-06,9.0,10.0,Palestinian Islamic Jihad (PIJ)
Kanaan,33.67263,44.85395,2008-03-09,5.0,,Unknown
Baghdad,33.303566,44.371773,2008-03-10,8.0,3.0,Unknown
Sulaymaniyah,35.567009,45.385494,2008-03-10,2.0,30.0,Unknown
Lahore,31.50547,74.34288,2008-03-11,27.0,200.0,Al-Qaida
Tinsukia,27.491929,95.347833,2008-03-11,2.0,15.0,United Liberation Front of Assam (ULFA)
Zab,35.271023,43.458084,2008-03-13,4.0,7.0,Al-Qaida in Iraq
Kabul,34.516895,69.147011,2008-03-13,7.0,18.0,Taliban
Khost,33.335258,69.928467,2008-03-16,2.0,1.0,Unknown
Mosul,36.354145,43.14357,2008-03-16,1.0,9.0,Sunni Muslim extremists
Gereshk,31.825871,64.576431,2008-03-17,7.0,4.0,Taliban
Swat district,34.767228,72.376782,2008-03-17,3.0,5.0,Unknown
Karbala,32.604393,44.007145,2008-03-17,40.0,65.0,Unknown
Balad Ruz,33.693947,45.067425,2008-03-19,5.0,12.0,Unknown
Mosul,36.354145,43.14357,2008-03-19,1.0,14.0,Unknown
Wana,32.306099,69.579956,2008-03-20,6.0,11.0,Tehrik-i-Taliban Pakistan (TTP)
Arghandab District,31.705032,65.689628,2008-03-21,3.0,3.0,Unknown
Unknown,31.6119,65.6811,2008-03-21,4.0,7.0,Unknown
Unknown,8.885503,80.276733,2008-03-22,3.0,10.0,Liberation Tigers of Tamil Eelam (LTTE)
Baghdad,33.303566,44.371773,2008-03-23,7.0,12.0,Unknown
Mosul,36.354145,43.14357,2008-03-23,13.0,42.0,Unknown
Kirkuk,35.45211,44.375465,2008-03-27,2.0,7.0,Unknown
Basra,30.510054,47.778095,2008-03-27,4.0,0.0,Unknown
Karma,33.403057,43.911865,2008-03-29,3.0,0.0,Unknown
Karma,33.403057,43.911865,2008-03-29,3.0,0.0,Unknown
Sidi El Houari,35.704616,-0.654332,2008-03-29,1.0,0.0,Algerian Islamic Extremists
Baiji,34.92485,43.491413,2008-03-30,6.0,9.0,Unknown
Khash Rod,31.622827,62.869366,2008-04-01,3.0,5.0,Taliban
Hawijah,35.326122,43.780811,2008-04-01,2.0,0.0,Unknown
Kirkuk,35.45211,44.375465,2008-04-01,2.0,0.0,Unknown
Lashkar Gah,31.60063,64.369652,2008-04-04,5.0,8.0,Unknown
Khanaqin,34.347343,45.383274,2008-04-04,15.0,27.0,Unknown
Sadiyah,34.125729,45.003342,2008-04-04,10.0,30.0,Unknown
Bahawalnagar district,29.688867,72.993668,2008-04-05,2.0,0.0,Unknown
Weliweriya,7.031878,80.028341,2008-04-06,15.0,83.0,Liberation Tigers of Tamil Eelam (LTTE)
,32.191878,67.189449,2008-04-08,18.0,16.0,Unknown
Mosul,36.354145,43.14357,2008-04-09,2.0,25.0,Unknown
Kandahar,31.631083,65.742226,2008-04-10,10.0,27.0,Unknown
,31.026149,62.450415,2008-04-12,3.0,8.0,Taliban
Tal Afar,36.376823,42.448875,2008-04-14,4.0,30.0,Unknown
Ramadi,33.420948,43.295662,2008-04-15,13.0,20.0,Unknown
Ramadi,33.420948,43.295662,2008-04-15,14.0,0.0,Al-Qaida in Iraq
Abu Mohammed,33.918611,44.921111,2008-04-17,46.0,60.0,Unknown
Zaranj,30.959932,61.86895,2008-04-17,25.0,30.0,Unknown
,31.363647,63.958611,2008-04-23,4.0,0.0,Taliban
Spin Boldak,31.002735,66.405617,2008-04-23,3.0,14.0,Taliban
Mosul,36.354145,43.14357,2008-04-23,3.0,6.0,Unknown
Khogyani district,34.229213,70.193208,2008-04-29,19.0,31.0,Taliban
Balad Ruz,33.693947,45.067425,2008-05-01,36.0,66.0,Al-Qaida in Iraq
Khyber district,33.908578,71.070055,2008-05-01,1.0,30.0,Unknown
,33.358508,69.859741,2008-05-07,2.0,3.0,Unknown
Trincomalee,8.577826,81.218719,2008-05-10,1.0,0.0,Liberation Tigers of Tamil Eelam (LTTE)
Zaidan,33.247181,44.025452,2008-05-14,31.0,20.0,Unknown
Zaidan,33.247181,44.025452,2008-05-14,21.0,15.0,Unknown
Colombo,6.941837,79.861687,2008-05-16,11.0,95.0,Liberation Tigers of Tamil Eelam (LTTE)
Baqubah,33.74324,44.623825,2008-05-17,2.0,15.0,Unknown
Jisr Diyala,33.223121,44.540776,2008-05-20,2.0,2.0,Unknown
Mandali,33.744999,45.545616,2008-05-20,2.0,2.0,Al-Qaida in Iraq
Erez,31.348022,34.491093,2008-05-22,2.0,0.0,Al-Aqsa Martyrs Brigade
Baghdad,33.303566,44.371773,2008-05-26,7.0,12.0,Unknown
Gorbaz,33.300747,69.884109,2008-05-28,2.0,4.0,Taliban
Sinjar,36.319386,41.861473,2008-05-29,17.0,21.0,Islamic State of Iraq (ISI)
Ain al-Hilweh,33.542004,35.381153,2008-05-31,1.0,0.0,Jund al-Sham for Tawhid and Jihad
Jaji Maydan district,33.638947,70.121765,2008-06-05,1.0,23.0,Unknown
Lido,36.740312,3.174597,2008-06-05,1.0,6.0,Al-Qaida in the Islamic Maghreb (AQIM)
Khash Rod district,31.622827,62.869366,2008-06-05,2.0,3.0,Unknown
Lashkar Gah,31.60063,64.369652,2008-06-12,1.0,0.0,Unknown
Qara Tapa,34.430836,44.93409,2008-06-14,1.0,39.0,Unknown
Vavuniya,8.757816,80.487907,2008-06-16,13.0,40.0,Liberation Tigers of Tamil Eelam (LTTE)
Baghdad,33.303566,44.371773,2008-06-17,5.0,2.0,Unknown
Karma,33.403057,43.911865,2008-06-26,21.0,17.0,Unknown
Wajihiyah,33.95,44.983333,2008-06-29,1.0,1.0,Unknown
Qayarah,35.79813,43.294178,2008-07-01,2.0,25.0,Unknown
Zaranj,30.959932,61.86895,2008-07-02,6.0,8.0,Taliban
Unknown,16.934746,43.76484,2008-07-05,2.0,4.0,Unknown
Islamabad,33.671638,73.056068,2008-07-06,20.0,40.0,Unknown
Kabul,34.516895,69.147011,2008-07-07,58.0,141.0,Haqqani Network
Baqubah,33.74324,44.623825,2008-07-07,10.0,12.0,Unknown
Dihrawud,32.623739,65.456432,2008-07-13,25.0,35.0,Taliban
Dera Ismail Khan,31.834328,70.90905,2008-07-13,1.0,5.0,Unknown
Mosul,36.354145,43.14357,2008-07-15,5.0,5.0,Unknown
Baghdad,33.303566,44.371773,2008-07-15,3.0,7.0,Unknown
Baqubah,33.74324,44.623825,2008-07-15,33.0,55.0,Islamic State of Iraq (ISI)
Fallujah,33.349159,43.784199,2008-07-21,1.0,2.0,Unknown
Kabul,34.516895,69.147011,2008-07-22,1.0,3.0,Unknown
Lakhdaria,36.562222,3.594444,2008-07-23,1.0,13.0,Al-Qaida in the Islamic Maghreb (AQIM)
Baghdad,33.303566,44.371773,2008-07-28,24.0,61.0,Al-Qaida in Iraq
Kirkuk,35.45211,44.375465,2008-07-28,27.0,183.0,Unknown
Tizi Ouzou,36.716365,4.049834,2008-08-03,1.0,25.0,Al-Qaida in the Islamic Maghreb (AQIM)
Urgun,32.943021,69.179885,2008-08-04,2.0,1.0,Unknown
Zemmouri el Bahri,36.802253,3.565254,2008-08-09,9.0,19.0,Al-Qaida in the Islamic Maghreb (AQIM)
Khanaqin,34.347343,45.383274,2008-08-10,3.0,22.0,Unknown
Kuqa,41.717906,82.962016,2008-08-10,3.0,2.0,Eastern Turkistan Islamic Movement (ETIM)
Peshawar,34.006004,71.53743,2008-08-11,1.0,2.0,Unknown
Baqubah,33.752217,44.69896,2008-08-12,3.0,7.0,Unknown
Multaqa district,35.407086,43.893465,2008-08-13,1.0,4.0,Unknown
Lahore,31.50547,74.34288,2008-08-13,11.0,40.0,Tehrik-i-Taliban Pakistan (TTP)
Iskandariyah,32.887157,44.341637,2008-08-14,25.0,76.0,Unknown
Lahore,31.50547,74.34288,2008-08-14,9.0,33.0,Unknown
Baghdad,33.303566,44.371773,2008-08-17,16.0,30.0,Unknown
Mersin,36.802461,34.629759,2008-08-19,1.0,12.0,Unknown
Dera Ismail Khan,31.834328,70.90905,2008-08-19,28.0,30.0,Tehrik-i-Taliban Pakistan (TTP)
Issers,36.72398,3.670848,2008-08-19,44.0,45.0,Al-Qaida in the Islamic Maghreb (AQIM)
Bouira,36.37489,3.902,2008-08-20,3.0,10.0,Al-Qaida in the Islamic Maghreb (AQIM)
Islamabad,33.671638,73.056068,2008-08-21,64.0,100.0,Tehrik-i-Taliban Pakistan (TTP)
Kirkuk,35.45211,44.375465,2008-08-23,6.0,8.0,Unknown
Zaydan,33.247181,44.025452,2008-08-24,31.0,42.0,Islamic State of Iraq (ISI)
Jalawlah,34.271034,45.163567,2008-08-26,26.0,40.0,Islamic State of Iraq (ISI)
Tal Afar,36.376823,42.448875,2008-08-27,1.0,22.0,Unknown
Zaranj,30.959932,61.86895,2008-09-06,6.0,1.0,Taliban
Kandahar,31.631083,65.742226,2008-09-11,3.0,4.0,Taliban
Sinjar,36.319386,41.861473,2008-09-12,3.0,15.0,Unknown
Sanaa,15.325443,44.211895,2008-09-17,16.0,6.0,Al-Qaida in Yemen
Islamabad,33.671638,73.056068,2008-09-20,61.0,200.0,Unknown
Damascus,33.515244,36.292084,2008-09-27,18.0,14.0,Unknown
Vavuniya,8.757816,80.487907,2008-09-28,2.0,9.0,Liberation Tigers of Tamil Eelam (LTTE)
Baghdad,33.303566,44.371773,2008-09-28,8.0,25.0,Al-Qaida in Iraq
Dellys,36.919552,3.891396,2008-09-28,4.0,5.0,Al-Qaida in the Islamic Maghreb (AQIM)
Baghdad,33.303566,44.371773,2008-10-02,9.0,10.0,Unknown
Baghdad,33.303566,44.371773,2008-10-02,13.0,25.0,Unknown
Anuradhapura,8.345185,80.388133,2008-10-06,29.0,80.0,Unknown
Baqubah,33.74324,44.623825,2008-10-08,10.0,21.0,Unknown
Colombo,6.941837,79.861687,2008-10-09,1.0,5.0,Unknown
Bak district,33.508599,70.123759,2008-10-10,3.0,3.0,Taliban
Ali Shir,33.449841,70.064041,2008-10-16,1.0,2.0,Taliban
Kankasanthurai,9.815167,80.037044,2008-10-22,1.0,0.0,Liberation Tigers of Tamil Eelam (LTTE)
Baghdad,33.303566,44.371773,2008-10-23,12.0,22.0,Unknown
Baghdad,33.303566,44.371773,2008-10-23,11.0,26.0,Unknown
Puli Khumri district,35.95,68.7,2008-10-27,8.0,0.0,Taliban
Hargeisa,9.556936,44.074135,2008-10-29,2.0,0.0,Unknown
Hargeisa,9.556936,44.074135,2008-10-29,5.0,,Unknown
Hargeisa,9.556936,44.074135,2008-10-29,3.0,0.0,Unknown
Kabul,34.516895,69.147011,2008-10-30,6.0,18.0,Taliban
Mardan,34.200592,72.048439,2008-10-31,9.0,22.0,Unknown
Shabqadar,34.217285,71.561043,2008-11-02,0.0,0.0,Unknown
Vladikavkaz,43.047456,44.665806,2008-11-05,12.0,40.0,Unknown
Bajaur district,34.733076,71.492391,2008-11-06,18.0,45.0,Tehrik-i-Taliban Pakistan (TTP)
Amriyat al-Fallujah,33.163559,43.863106,2008-11-09,4.0,7.0,Unknown
Amiriyah,33.163559,43.863106,2008-11-09,3.0,7.0,Unknown
Azizabad,33.34964,62.333717,2008-11-09,3.0,1.0,Taliban
Baghdad,33.303566,44.371773,2008-11-10,32.0,71.0,Al-Qaida in Iraq
Baqubah,33.74324,44.623825,2008-11-10,6.0,15.0,Unknown
Peshawar,34.006004,71.53743,2008-11-11,4.0,13.0,Unknown
Zaranj,30.959932,61.86895,2008-11-11,1.0,0.0,Unknown
Kandahar,31.631083,65.742226,2008-11-12,7.0,42.0,Unknown
Tal Afar,36.376823,42.448875,2008-11-15,12.0,36.0,Unknown
Bajaur district,34.856902,71.429936,2008-11-19,9.0,6.0,Unknown
Dwahmande,33.279501,69.598588,2008-11-20,9.0,16.0,Taliban
Bajaur district,34.856902,71.429936,2008-11-20,10.0,4.0,Unknown
Baghdad,33.303566,44.371773,2008-11-24,7.0,12.0,Unknown
Mumbai,18.906703,72.814712,2008-11-26,9.0,0.0,Deccan Mujahideen
Mumbai,19.075984,72.877656,2008-11-26,4.0,2.0,Deccan Mujahideen
Mumbai,19.075984,72.877656,2008-11-26,68.0,76.0,Deccan Mujahideen
Mumbai,19.075984,72.877656,2008-11-26,9.0,76.0,Deccan Mujahideen
Mumbai,19.075984,72.877656,2008-11-26,32.0,22.0,Deccan Mujahideen
Kabul,34.516895,69.147011,2008-11-27,5.0,18.0,Taliban
Mosul,36.354145,43.14357,2008-11-27,1.0,6.0,Unknown
Musayib,32.777344,44.289352,2008-11-28,13.0,23.0,Islamic State of Iraq (ISI)
Baghdad,33.303566,44.371773,2008-11-28,3.0,14.0,Unknown
Kabul,34.516895,69.147011,2008-11-30,4.0,6.0,Unknown
Baghdad,33.303566,44.371773,2008-12-01,17.0,46.0,Islamic State of Iraq (ISI)
Khost,33.335258,69.928467,2008-12-04,4.0,0.0,Haqqani Network
Kirkuk,35.45211,44.375465,2008-12-06,2.0,10.0,Unknown
Buner district,34.396497,72.615832,2008-12-09,2.0,4.0,Tehrik-i-Taliban Pakistan (TTP)
Kirkuk,35.45211,44.375465,2008-12-11,56.0,120.0,Islamic State of Iraq (ISI)
Tarmiyah,33.669689,44.381317,2008-12-15,2.0,3.0,Unknown
El-Hamadna,35.905778,0.774386,2008-12-20,3.0,0.0,Al-Qaida in the Islamic Maghreb (AQIM)
Ghazni,33.542622,68.415329,2008-12-22,3.0,7.0,Unknown
Mosul,36.354145,43.14357,2008-12-24,1.0,7.0,Unknown
,33.358508,69.859741,2008-12-28,17.0,58.0,Haqqani Network
Wattala,6.978143,79.889327,2008-12-27,9.0,17.0,Liberation Tigers of Tamil Eelam (LTTE)
Mosul,36.354145,43.14357,2008-12-28,5.0,21.0,Unknown
Shalbandi,34.500469,72.521992,2008-12-28,24.0,16.0,Tehrik-i-Taliban Pakistan (TTP)
Chaharikar,35.018158,69.168991,2008-12-29,3.0,15.0,Unknown
Tal Afar,36.376823,42.448875,2008-12-29,2.0,3.0,Unknown
Saravan,27.3707,62.3342,2008-12-29,2.0,20.0,Jundallah (Iran)
Yusufiyah,33.07835,44.254719,2009-01-02,30.0,110.0,Islamic State of Iraq (ISI)
Colombo,6.941837,79.861687,2009-01-02,3.0,31.0,Liberation Tigers of Tamil Eelam (LTTE)
Baghdad,33.303566,44.371773,2009-01-04,36.0,65.0,Unknown
Dera Ismail Khan,31.834328,70.90905,2009-01-04,11.0,21.0,Unknown
Kabul,34.516895,69.147011,2009-01-17,6.0,20.0,Unknown
Qayarah,35.79813,43.294178,2009-01-18,4.0,2.0,Unknown
Baghlan,36.177311,68.752136,2009-01-21,1.0,7.0,Unknown
,33.706199,69.383108,2009-01-24,3.0,8.0,Unknown
Chalai,9.416667,80.666667,2009-02-04,0.0,0.0,Liberation Tigers of Tamil Eelam (LTTE)
Khanaqin,34.347343,45.383274,2009-02-05,17.0,12.0,Unknown
Dera Ghazi Khan,30.034319,70.639676,2009-02-05,33.0,48.0,Unknown
Jamrud,34.002579,71.382477,2009-02-06,4.0,6.0,Unknown
"Visuamadu,",9.386986,80.548432,2009-02-09,30.0,64.0,Liberation Tigers of Tamil Eelam (LTTE)
Kabul,34.516895,69.147011,2009-02-11,14.0,28.0,Haqqani Network
Kabul,34.516895,69.147011,2009-02-11,1.0,,Taliban
Karbala,32.604393,44.007145,2009-02-12,9.0,56.0,Unknown
Musayib,32.777344,44.289352,2009-02-13,40.0,69.0,Unknown
Musayib,32.777344,44.289352,2009-02-13,41.0,80.0,Islamic State of Iraq (ISI)
Colombo,6.941837,79.861687,2009-02-20,4.0,50.0,Liberation Tigers of Tamil Eelam (LTTE)
Dera Ismail Khan,31.834328,70.90905,2009-02-20,27.0,65.0,Unknown
Dera Ismail Khan,31.834328,70.90905,2009-02-21,5.0,0.0,Unknown
Fallujah,33.349159,43.784199,2009-03-01,3.0,6.0,Unknown
Pishin,30.583332,66.996513,2009-03-02,6.0,12.0,Unknown
Elephant Pass,9.518485,80.406057,2009-03-02,1.0,,Liberation Tigers of Tamil Eelam (LTTE)
Mosul,36.354145,43.14357,2009-03-04,3.0,15.0,Unknown
Chaharikar,35.018158,69.168991,2009-03-04,1.0,3.0,Taliban
